{"html_attributions": [], "next_page_token": "CrQCLAEAAFOoR1KSlnoPSyuGLYNXDfbke0QVtHHJrpQs0AnDQ7fTZkXCOve4T2RZB1r7YIBZ9x7YOJVvpH7XBUcX-4QTz1-Sx47tYT7KRWnbnmCSJKm_L648SNBK7jwYNxbEDPlN_olumyv3bUyYnnHIxe9xj_0Mi7oEapuhyJvaYy38LyoGWyPuJu8QrBg5B-8wPcBbcSWDRIP-92QwpSxIndLdbx305A-HgD-eqxzVVVSyPiItuV5jOja40xIiF_d-9wahCsbIg55UFRxfXB5Gt9jUKxrd3DBjw-lvEMsMz5h2dyHGH-qNbP0gQopwUpB2JdjcJUGYQUy-NUtg1_SIGvVuOnVsppeNzn9BpiM3aDkOkJL_xppVlAwlmxe4kCfUvkv07RFAc0sRBn40myCXdlkGotoSEKxy3yuA3McOX6N9BK04Ma4aFFH5Iy22NobCSj7owSQbGKUSso93", "results": [{"geometry": {"location": {"lat": 40.694496, "lng": -73.9834546}, "viewport": {"northeast": {"lat": 40.69586997989272, "lng": -73.98211067010728}, "southwest": {"lat": 40.69317032010728, "lng": -73.98481032989272}}}, "icon": "https://maps.gstatic.com/mapfiles/place_api/icons/gas_station-71.png", "id": "d5aac41a323606b39d0e1f3c9bcb5477367c7c27", "name": "KINGS FLATBUSH EXTENSION C-STORE", "opening_hours": {"open_now": true}, "photos": [{"height": 1080, "html_attributions": ["<a href=\"https://maps.google.com/maps/contrib/101414482886684900509\">Ibrahim AlZabin</a>"], "photo_reference": "CmRaAAAAvYYhV4maypTGQupGZodlqBbkVmm0IC-v9cd6QLEL2gPq3Q1ttoql8y82U5-nRS562DGqlEMBB2ogb58czql0LuhX7WVF43x5A_gl2gzwi7t85-08Kd0ITcHJNnsTJZ1bEhB9b4dh-M0WtswvoCpJN0WnGhRmq4uEdX_0XF8rtsc0pMa-hbrwKA", "width": 1920}], "place_id": "ChIJIUpstkpawokR59Btl22EQNQ", "plus_code": {"compound_code": "M2V8+QJ Brooklyn, New York", "global_code": "87G8M2V8+QJ"}, "rating": 3.3, "reference": "ChIJIUpstkpawokR59Btl22EQNQ", "scope": "GOOGLE", "types": ["gas_station", "point_of_interest", "establishment"], "user_ratings_total": 291, "vicinity": "185 Flatbush Ave Ext, Brooklyn"}, {"geometry": {"location": {"lat": 40.7389859, "lng": -74.00347169999999}, "viewport": {"northeast": {"lat": 40.74032372989273, "lng": -74.00203252010728}, "southwest": {"lat": 40.73762407010729, "lng": -74.00473217989271}}}, "icon": "https://maps.gstatic.com/mapfiles/place_api/icons/gas_station-71.png", "id": "2b258f61df6e7855df6c4b06c64e3c6dae861993", "name": "LIBERTY 8TH AVENUE", "opening_hours": {"open_now": true}, "photos": [{"height": 3480, "html_attributions": ["<a href=\"https://maps.google.com/maps/contrib/114635386287934318875\">Marta Wyngaard</a>"], "photo_reference": "CmRaAAAAiazzA4YW_VUDH2AAfnT1i6oBadJF55Y9Cl-T9n29PN-JJzrEpixGw4MsNOad9tvCTkS8-MyQPdyBIClBoE3AkqA1iXqfloPabo7TcgfRFvcWwaoVSGOs9ZbCa0XOdIumEhB8aZytj_svYWf2NAeyHqPPGhRsI5LzO7XVl2dYR-Aa3XVr1XvDFw", "width": 4640}], "place_id": "ChIJxQdXzb9ZwokRetTp0LGQD2o", "plus_code": {"compound_code": "PXQW+HJ New York", "global_code": "87G7PXQW+HJ"}, "rating": 3.2, "reference": "ChIJxQdXzb9ZwokRetTp0LGQD2o", "scope": "GOOGLE", "types": ["gas_station", "point_of_interest", "establishment"], "user_ratings_total": 312, "vicinity": "51-63 8th Ave, New York"}, {"geometry": {"location": {"lat": 40.7351567, "lng": -73.974515}, "viewport": {"northeast": {"lat": 40.73646062989272, "lng": -73.97336422010729}, "southwest": {"lat": 40.73376097010728, "lng": -73.97606387989272}}}, "icon": "https://maps.gstatic.com/mapfiles/place_api/icons/gas_station-71.png", "id": "abbd0eb38ddaafd1f6ff7f700b6dc6822ffc15b6", "name": "BP", "opening_hours": {"open_now": true}, "photos": [{"height": 2803, "html_attributions": ["<a href=\"https://maps.google.com/maps/contrib/115245019345286808364\">Jon</a>"], "photo_reference": "CmRaAAAAo5JbQLP5um2CV05218r7Rfefe41sTOJxlka6jrxpspW_JPw91JhOe33jKRoFZHoUi825fIBF-PVZyEx1xmTav67kpopP74cU_6cltUpzq5kuWidDObyW7o1u7Mz6uXU-EhBcUAdjPUYHOWCWEiRn_jBMGhQW0rfbRzLgcogbjmhgelnxEei1ow", "width": 3640}], "place_id": "ChIJxR3ywwxZwokRYMTLpKgWg4A", "plus_code": {"compound_code": "P2PG+35 New York", "global_code": "87G8P2PG+35"}, "rating": 3.1, "reference": "ChIJxR3ywwxZwokRYMTLpKgWg4A", "scope": "GOOGLE", "types": ["gas_station", "point_of_interest", "establishment"], "user_ratings_total": 187, "vicinity": "2430 FDR Dr, New York"}, {"geometry": {"location": {"lat": 40.7007954, "lng": -73.962544}, "viewport": {"northeast": {"lat": 40.70218427989272, "lng": -73.96117707010728}, "southwest": {"lat": 40.69948462010728, "lng": -73.96387672989272}}}, "icon": "https://maps.gstatic.com/mapfiles/place_api/icons/gas_station-71.png", "id": "6bd4ff1f20691775c46df6105ca698c892f4b8b1", "name": "BP", "opening_hours": {"open_now": true}, "photos": [{"height": 4008, "html_attributions": ["<a href=\"https://maps.google.com/maps/contrib/114339123323154895565\">A Google User</a>"], "photo_reference": "CmRaAAAAxtKURBkWpQRg7rv8NH8zmGtns1UZVJE0oGy_cZig-R_75GDKRG9GGSMy2_Hq_d67OqbpD74ignvk8O8hnDFt4Fiu2j8XB9l5r2kNf4LuUHSrRjoMZ4uNRROhW2JFWj5dEhBj8qnIigwrWWhjpjNGZG0vGhR9igC419Is1IWjqXOGdwbLOjiHfw", "width": 5344}], "place_id": "ChIJSfV9BMNbwokRgN_bJk7b-CU", "plus_code": {"compound_code": "P22P+8X Brooklyn, New York", "global_code": "87G8P22P+8X"}, "rating": 2.9, "reference": "ChIJSfV9BMNbwokRgN_bJk7b-CU", "scope": "GOOGLE", "types": ["gas_station", "atm", "convenience_store", "finance", "food", "point_of_interest", "store", "establishment"], "user_ratings_total": 46, "vicinity": "677 Kent Ave, Brooklyn"}, {"geometry": {"location": {"lat": 40.6980581, "lng": -73.96174359999999}, "viewport": {"northeast": {"lat": 40.69945357989273, "lng": -73.96048037010728}, "southwest": {"lat": 40.69675392010728, "lng": -73.96318002989273}}}, "icon": "https://maps.gstatic.com/mapfiles/place_api/icons/gas_station-71.png", "id": "76830ad601434951c726db5b80a02847ae2da450", "name": "Shell", "opening_hours": {"open_now": true}, "photos": [{"height": 3024, "html_attributions": ["<a href=\"https://maps.google.com/maps/contrib/107619537400947478625\">Ugur Yilmaz</a>"], "photo_reference": "CmRZAAAAtlgXjKuPNeMZ515J9cLIPsM2ib-G2CdmWGMkdovtj2919fGxeFsFZ2mdxDET6R82SQ4cAjP3OyaqDjAPkfN0CfGk2ojSunYjeHQhyAT428FSTc_yXrtq6ufaXZHK0GvxEhDuc71WIJZVx9KAYPuEjIfCGhRtuOiZWwucmlIchQZDcFHD9p3iJA", "width": 4032}], "place_id": "ChIJZy4zL8JbwokRPEhxE_096kI", "plus_code": {"compound_code": "M2XQ+68 Brooklyn, New York", "global_code": "87G8M2XQ+68"}, "price_level": 2, "rating": 4, "reference": "ChIJZy4zL8JbwokRPEhxE_096kI", "scope": "GOOGLE", "types": ["gas_station", "atm", "convenience_store", "finance", "food", "point_of_interest", "store", "establishment"], "user_ratings_total": 95, "vicinity": "75 Classon Ave, Brooklyn"}, {"geometry": {"location": {"lat": 40.6833056, "lng": -73.9822899}, "viewport": {"northeast": {"lat": 40.68471447989272, "lng": -73.98085707010728}, "southwest": {"lat": 40.68201482010728, "lng": -73.98355672989271}}}, "icon": "https://maps.gstatic.com/mapfiles/place_api/icons/gas_station-71.png", "id": "00c283db72aab0bbaf124b4b9957ecf456bbfc9d", "name": "Shell", "opening_hours": {"open_now": true}, "photos": [{"height": 2268, "html_attributions": ["<a href=\"https://maps.google.com/maps/contrib/104808336663295289664\">Izzy Barron</a>"], "photo_reference": "CmRaAAAAbO8aoEvFI5EzqjWOEdbmES6vwzR7xHX4W1L2XdboRCVGIm9dAhQsCV9Uwsx_x9V_BGvoEayV67h4PB6iLyTE7f1n_YYcByJ4EK2Xlj1ym6mvUSbARfYAFdeja4htP2s4EhBMb3wh-fqF0g1LAxOyGVb1GhSlwUo0H_ZFSXFc7WaG6siggRq-Yw", "width": 4032}], "place_id": "ChIJjZH516xbwokR5HlE4mmaOEo", "plus_code": {"compound_code": "M2M9+83 Brooklyn, New York", "global_code": "87G8M2M9+83"}, "price_level": 2, "rating": 3.5, "reference": "ChIJjZH516xbwokR5HlE4mmaOEo", "scope": "GOOGLE", "types": ["gas_station", "atm", "finance", "point_of_interest", "establishment"], "user_ratings_total": 78, "vicinity": "100 3rd Ave, Brooklyn"}, {"geometry": {"location": {"lat": 40.6941619, "lng": -73.9613537}, "viewport": {"northeast": {"lat": 40.69543252989272, "lng": -73.95989127010729}, "southwest": {"lat": 40.69273287010728, "lng": -73.96259092989273}}}, "icon": "https://maps.gstatic.com/mapfiles/place_api/icons/gas_station-71.png", "id": "e36cec8258ea364d2214b33008372c1fdb8acf26", "name": "Citgo", "opening_hours": {"open_now": true}, "photos": [{"height": 4032, "html_attributions": ["<a href=\"https://maps.google.com/maps/contrib/115728342827887775821\">A Google User</a>"], "photo_reference": "CmRaAAAA2OAC7ltRgT8mcMKeVHZTRRpF09STF2aXUCe37-KaObkSolYd6HSAA30l9EYd4HpSXB_ExEG1uOCWcjIkg0zhY4HiZCNhk16LugAADhS8Q0f2jFv2bYx1H4SgsbcJSphOEhBcxx2qyWIxbY9l3UJQ1W5pGhRz3C1ZlmmLSCIsX_04qOmeOumjZQ", "width": 3024}], "place_id": "ChIJBTwVQMBbwokReAI3R7BJWqQ", "plus_code": {"compound_code": "M2VQ+MF Brooklyn, New York", "global_code": "87G8M2VQ+MF"}, "rating": 3.8, "reference": "ChIJBTwVQMBbwokReAI3R7BJWqQ", "scope": "GOOGLE", "types": ["gas_station", "point_of_interest", "establishment"], "user_ratings_total": 70, "vicinity": "569 Myrtle Ave, Brooklyn"}, {"geometry": {"location": {"lat": 40.6809292, "lng": -74.0033468}, "viewport": {"northeast": {"lat": 40.68225722989272, "lng": -74.00191777010728}, "southwest": {"lat": 40.67955757010728, "lng": -74.00461742989273}}}, "icon": "https://maps.gstatic.com/mapfiles/place_api/icons/gas_station-71.png", "id": "4b9f8d193c186b582f99d06f28106933d0ea2621", "name": "Gulf Gas Station", "opening_hours": {"open_now": false}, "photos": [{"height": 1836, "html_attributions": ["<a href=\"https://maps.google.com/maps/contrib/115721145224077578813\">Ruben De La Rosa</a>"], "photo_reference": "CmRaAAAAOYJ3CAD-oTnbjZAAlWQGyjzAz4P_Dl3y8cibw_W2Kz5EW1-DMWfzvbZZ1tBI_JRHxCeD1TydQUMAsVSqKKhC_D2SGTgj8RE08JI1zc5H0WaI3on0A3_SZq3Ng2-1Se9MEhCbZcugo8sSmixdYF6HvBG6GhRUPeBpb9OjU-N-ZqHg-zGZm6eKng", "width": 3264}], "place_id": "ChIJH8CiCF9awokRR47DNDE5zpw", "plus_code": {"compound_code": "MXJW+9M Brooklyn, New York", "global_code": "87G7MXJW+9M"}, "rating": 4, "reference": "ChIJH8CiCF9awokRR47DNDE5zpw", "scope": "GOOGLE", "types": ["gas_station", "point_of_interest", "establishment"], "user_ratings_total": 44, "vicinity": "640 Hicks St, Brooklyn"}, {"geometry": {"location": {"lat": 40.70769230000001, "lng": -73.9508178}, "viewport": {"northeast": {"lat": 40.70897997989272, "lng": -73.94944827010727}, "southwest": {"lat": 40.70628032010728, "lng": -73.95214792989272}}}, "icon": "https://maps.gstatic.com/mapfiles/place_api/icons/gas_station-71.png", "id": "26883f4972c7b9140eab840ed70db59b1f4a4aba", "name": "BP", "opening_hours": {"open_now": true}, "photos": [{"height": 3120, "html_attributions": ["<a href=\"https://maps.google.com/maps/contrib/105285830767256870443\">A Google User</a>"], "photo_reference": "CmRaAAAA4M9Kymmdyrd7NwXMO_03V4reLps7UTuC1Ft-_GSUYQCFEPgPj-k5Blmqo6VBbjCBNkudO_nVuxPwqFzbwpp1gMwcDCEqVnWC532DKP1yco4SxcLgvRJZ0XY_KsKf_2snEhB2R1O_T8tID1dY6MRd-1CcGhQjdouJ8L_HXRESXprZN9iRxSBSgA", "width": 4160}], "place_id": "ChIJn4en8-RbwokRkSnKZfW0Hk8", "plus_code": {"compound_code": "P25X+3M Brooklyn, New York", "global_code": "87G8P25X+3M"}, "rating": 2.6, "reference": "ChIJn4en8-RbwokRkSnKZfW0Hk8", "scope": "GOOGLE", "types": ["gas_station", "atm", "convenience_store", "finance", "food", "point_of_interest", "store", "establishment"], "user_ratings_total": 25, "vicinity": "239 Union Ave, Brooklyn"}, {"geometry": {"location": {"lat": 40.71061539999999, "lng": -73.9489759}, "viewport": {"northeast": {"lat": 40.71196372989273, "lng": -73.94764367010727}, "southwest": {"lat": 40.70926407010728, "lng": -73.95034332989272}}}, "icon": "https://maps.gstatic.com/mapfiles/place_api/icons/gas_station-71.png", "id": "6f5e1da56e22aab3ac84e55ac91e0f55aa823114", "name": "CONOCO 24-Hr. Full-Service", "opening_hours": {"open_now": true}, "photos": [{"height": 3072, "html_attributions": ["<a href=\"https://maps.google.com/maps/contrib/103203033458719447179\">Marcos Rodriguez</a>"], "photo_reference": "CmRaAAAA8nP6tpunKItv4v4ti1EZFnnrZbRxfqSKmDa7-DgLwpf5Ks4LgEQvThjxPO0nPV-U7ZWb-U_AZB1ydoK-3dWHgaOYjWUHIHoFF3_P0GwOj9poJCuV5tU0IaUIhJUbZtPdEhCkPG5QiHShoxfZp7_3l9U1GhT0eqyExlusxoYQAaGKCvIOtQfFZg", "width": 4096}], "place_id": "ChIJRfrvoOJbwokRSTj896Y7y0Q", "plus_code": {"compound_code": "P362+6C Brooklyn, New York", "global_code": "87G8P362+6C"}, "rating": 4, "reference": "ChIJRfrvoOJbwokRSTj896Y7y0Q", "scope": "GOOGLE", "types": ["gas_station", "point_of_interest", "establishment"], "user_ratings_total": 100, "vicinity": "451 Lorimer St, Brooklyn"}, {"geometry": {"location": {"lat": 40.7299912, "lng": -74.0418554}, "viewport": {"northeast": {"lat": 40.73143287989271, "lng": -74.04027067010728}, "southwest": {"lat": 40.72873322010727, "lng": -74.04297032989271}}}, "icon": "https://maps.gstatic.com/mapfiles/place_api/icons/gas_station-71.png", "id": "efc3ec4129cb06df189372a30acc28ba44cae5de", "name": "Gulf Gas Station", "opening_hours": {}, "photos": [{"height": 2988, "html_attributions": ["<a href=\"https://maps.google.com/maps/contrib/101151931225978101832\">TAMBA Edouard</a>"], "photo_reference": "CmRaAAAAofCQEvA6KoDvfPA1BK9yDkdjpD-G16gRednoEc0gBm43zMaPnwRH8ED9oeN-b0X4a4KM7Pm8LHqbTGRdlCTj_Lja9uJ_BXGsdxuArN0Mu_7e6FvqCI4FG_89CxyVNebEEhDl9zQOvK4qUYhNdvlbkewTGhSwB_CwL-7EposnaX9ADOJBrAlr3A", "width": 5312}], "place_id": "ChIJ-Xqk7U5XwokRNscxEbytbZU", "plus_code": {"compound_code": "PXH5+X7 Jersey City, New Jersey", "global_code": "87G7PXH5+X7"}, "rating": 3.6, "reference": "ChIJ-Xqk7U5XwokRNscxEbytbZU", "scope": "GOOGLE", "types": ["gas_station", "point_of_interest", "establishment"], "user_ratings_total": 76, "vicinity": "183 12th St, Jersey City"}, {"geometry": {"location": {"lat": 40.7049672, "lng": -73.9499084}, "viewport": {"northeast": {"lat": 40.70637622989273, "lng": -73.94858267010727}, "southwest": {"lat": 40.70367657010728, "lng": -73.95128232989272}}}, "icon": "https://maps.gstatic.com/mapfiles/place_api/icons/gas_station-71.png", "id": "df3540c69d67801febead3f2a144b77b7873d2fc", "name": "BP", "opening_hours": {"open_now": true}, "photos": [{"height": 3024, "html_attributions": ["<a href=\"https://maps.google.com/maps/contrib/100977787671095852487\">Bekzod Ahmedov</a>"], "photo_reference": "CmRaAAAAWGKPYHrH4wqhPMf8vE14IboHfDwnye5OaPAku673EAUM0jWU-lmnJAgKI1jTVqilJ8P5gfuLQrSP7PXpv_ynPBKZ4j9t6vf-YYSDe8WJW58wMJoeE3yxxYt3ktyqzKqhEhAGAWsgO8OkunjnBF1zugElGhSnkYn_Ei_fbRAYWiliqEMp0Rn9zQ", "width": 4032}], "place_id": "ChIJoVDokeRbwokR5GqRdyGdCvM", "plus_code": {"compound_code": "P332+X2 Brooklyn, New York", "global_code": "87G8P332+X2"}, "rating": 4.1, "reference": "ChIJoVDokeRbwokR5GqRdyGdCvM", "scope": "GOOGLE", "types": ["gas_station", "atm", "finance", "point_of_interest", "establishment"], "user_ratings_total": 163, "vicinity": "152 Union Ave, Brooklyn"}, {"geometry": {"location": {"lat": 40.7286351, "lng": -73.9502249}, "viewport": {"northeast": {"lat": 40.72993802989272, "lng": -73.94890897010727}, "southwest": {"lat": 40.72723837010728, "lng": -73.95160862989272}}}, "icon": "https://maps.gstatic.com/mapfiles/place_api/icons/gas_station-71.png", "id": "660a428b2761bd1a22fa662a727750d73f08aa1d", "name": "Gulf Gas Station", "opening_hours": {}, "photos": [{"height": 4032, "html_attributions": ["<a href=\"https://maps.google.com/maps/contrib/115728342827887775821\">A Google User</a>"], "photo_reference": "CmRaAAAArSTyIrzRSFDohlrQs5PKgLMzyVjEdsNdWCMMTFAXJyVXqFx7ZcYX6g82wN_qoFBu_BoPO95rMJJzERpQ5TTRa1P7ZqZ33PNJ3P-VcDljU6zb3JUL8IdM5CPtEmpW41DMEhCTPY7fw4jtMgC5aY2U5osSGhTlf2Hgqm5xXtTOgVidgHAGEDo7fg", "width": 3024}], "place_id": "ChIJlwGNpkdZwokRXqTPhVcgELA", "plus_code": {"compound_code": "P2HX+FW Brooklyn, New York", "global_code": "87G8P2HX+FW"}, "rating": 3.9, "reference": "ChIJlwGNpkdZwokRXqTPhVcgELA", "scope": "GOOGLE", "types": ["gas_station", "point_of_interest", "establishment"], "user_ratings_total": 34, "vicinity": "176 McGuinness Blvd, Brooklyn"}, {"geometry": {"location": {"lat": 40.7335091, "lng": -73.952507}, "viewport": {"northeast": {"lat": 40.73482422989272, "lng": -73.95103582010728}, "southwest": {"lat": 40.73212457010727, "lng": -73.95373547989271}}}, "icon": "https://maps.gstatic.com/mapfiles/place_api/icons/gas_station-71.png", "id": "39db0781f3c9227b1f18aa92ab7a24094b01d3f0", "name": "Gulf MJB Service Station", "opening_hours": {"open_now": true}, "photos": [{"height": 4032, "html_attributions": ["<a href=\"https://maps.google.com/maps/contrib/115074077063757267641\">A Google User</a>"], "photo_reference": "CmRaAAAAmU6NhQxWbOQ5EtsPhkItLSpR7dODBmgE8GWAt57Ezckj7ZWQe0ji0opvK9fB0Wd6rVy2ZHylomcoELNZSBHw92UCCP6kVlIEYG7d6Jpk8N6f9NgfoFQXtAoZ_MXgkvruEhB8Yodg3pClqkJ8pu1AKS2FGhR6Bj2EmoYBpdckP5LIXE9Zr_Jmjw", "width": 3024}], "place_id": "ChIJa2-tIDlZwokRusXNzSxfYzQ", "plus_code": {"compound_code": "P2MW+CX Brooklyn, New York", "global_code": "87G8P2MW+CX"}, "rating": 3.7, "reference": "ChIJa2-tIDlZwokRusXNzSxfYzQ", "scope": "GOOGLE", "types": ["gas_station", "point_of_interest", "establishment"], "user_ratings_total": 68, "vicinity": "321 McGuinness Blvd #1817, Brooklyn"}, {"geometry": {"location": {"lat": 40.6770266, "lng": -74.0024497}, "viewport": {"northeast": {"lat": 40.67838117989271, "lng": -74.00112657010727}, "southwest": {"lat": 40.67568152010727, "lng": -74.00382622989272}}}, "icon": "https://maps.gstatic.com/mapfiles/place_api/icons/gas_station-71.png", "id": "53b155205785ab32432a63d72fd98775bc6c8325", "name": "Gulf Gas Station", "opening_hours": {"open_now": true}, "photos": [{"height": 3024, "html_attributions": ["<a href=\"https://maps.google.com/maps/contrib/103625100604768819049\">Mei Yan</a>"], "photo_reference": "CmRaAAAAPjiak-ESljB5KrnCZzM-8-lHwwowiBzsHHgTvs-TTRBLS6l-JXTMbwrUxXwqoI6svex9AL-vEwMk93Rxn0CCGXf4yTSc7Zwf2QRMxtt8oBHzkqWm3DB8u8OTU-HxHfb0EhAir_0nRkNJuAxZhJwK7mKSGhRKnDmJUKdreJB63hl5AQelo-2W4A", "width": 4032}], "place_id": "ChIJH04wuvVawokRWNcEBRGy96w", "plus_code": {"compound_code": "MXGX+R2 Brooklyn, New York", "global_code": "87G7MXGX+R2"}, "rating": 3.5, "reference": "ChIJH04wuvVawokRWNcEBRGy96w", "scope": "GOOGLE", "types": ["gas_station", "point_of_interest", "establishment"], "user_ratings_total": 85, "vicinity": "260 Hamilton Ave, Brooklyn"}, {"geometry": {"location": {"lat": 40.73219040000001, "lng": -74.0440945}, "viewport": {"northeast": {"lat": 40.73356622989272, "lng": -74.04259697010728}, "southwest": {"lat": 40.73086657010727, "lng": -74.04529662989272}}}, "icon": "https://maps.gstatic.com/mapfiles/place_api/icons/gas_station-71.png", "id": "f71057b948351592e35910811fed0ed5ade56524", "name": "Sunoco Gas Station", "opening_hours": {"open_now": true}, "photos": [{"height": 4032, "html_attributions": ["<a href=\"https://maps.google.com/maps/contrib/100146876602562933271\">mtandiz</a>"], "photo_reference": "CmRaAAAAL1eMbp8MuYJfsaFhmaPYKOPkvH-nPvtPPayDswlBnc91mvQ7bpfT36oakFwlt-uqj_Yr-1av0a2W_GBYsR2fzCeJwrkXxgYMGCKPgkL8tL5wHDrzywvTvLFyuWXlW3n9EhA33pqtBquAJnjnnUbYsgllGhRdldCJ2KniPa5Hh5z4v4cNPvjc-Q", "width": 3024}], "place_id": "ChIJhVmyL1BXwokRj9fJJHBjiHk", "plus_code": {"compound_code": "PXJ4+V9 Jersey City, New Jersey", "global_code": "87G7PXJ4+V9"}, "price_level": 2, "rating": 2.9, "reference": "ChIJhVmyL1BXwokRj9fJJHBjiHk", "scope": "GOOGLE", "types": ["gas_station", "convenience_store", "food", "point_of_interest", "store", "establishment"], "user_ratings_total": 8, "vicinity": "Jersey Ave &, 14th St, Jersey City"}, {"geometry": {"location": {"lat": 40.730693, "lng": -73.948087}, "viewport": {"northeast": {"lat": 40.73209237989271, "lng": -73.94676442010727}, "southwest": {"lat": 40.72939272010727, "lng": -73.94946407989272}}}, "icon": "https://maps.gstatic.com/mapfiles/place_api/icons/gas_station-71.png", "id": "3a1a97eb52fa70e95ef688d97637ddfaaa2a3103", "name": "Gas Station", "opening_hours": {}, "place_id": "ChIJTweWNe1ZwokR1NxQ_wFvQv4", "plus_code": {"compound_code": "P3J2+7Q Brooklyn, New York", "global_code": "87G8P3J2+7Q"}, "rating": 4.6, "reference": "ChIJTweWNe1ZwokR1NxQ_wFvQv4", "scope": "GOOGLE", "types": ["gas_station", "point_of_interest", "establishment"], "user_ratings_total": 17, "vicinity": "Brooklyn"}, {"geometry": {"location": {"lat": 40.7205874, "lng": -73.9442474}, "viewport": {"northeast": {"lat": 40.72187902989272, "lng": -73.94299512010728}, "southwest": {"lat": 40.71917937010727, "lng": -73.94569477989272}}}, "icon": "https://maps.gstatic.com/mapfiles/place_api/icons/gas_station-71.png", "id": "13c4dc05941d03514dab2d2bc8f0b6ec71dbce63", "name": "Sunoco Gas Station", "opening_hours": {"open_now": true}, "photos": [{"height": 4032, "html_attributions": ["<a href=\"https://maps.google.com/maps/contrib/100146876602562933271\">mtandiz</a>"], "photo_reference": "CmRaAAAAqeLzARe7gr0kaj_Zv-ArOO2pp_Kpaw3HKnb24e7njEZK3vP5hIC9_jrFkRZnK8O1YZDUy72oC3emiggnVDVJ5pgRrGDR9PsfGMaprh4m7k-D0sslSA_AaJNB0PQhDZOrEhBLGc85Eq4pvj2neY3AlyjGGhSt4dYvAQw77ZmfKebN5u8FTqS3SA", "width": 3024}], "place_id": "ChIJwUK7MU5ZwokRWKkfF8a5Hws", "plus_code": {"compound_code": "P3C4+68 Brooklyn, New York", "global_code": "87G8P3C4+68"}, "price_level": 2, "rating": 3.4, "reference": "ChIJwUK7MU5ZwokRWKkfF8a5Hws", "scope": "GOOGLE", "types": ["gas_station", "convenience_store", "food", "point_of_interest", "store", "establishment"], "user_ratings_total": 48, "vicinity": "497 Meeker Ave, Brooklyn"}, {"geometry": {"location": {"lat": 40.6730638, "lng": -73.9988774}, "viewport": {"northeast": {"lat": 40.67437182989272, "lng": -73.99739772010727}, "southwest": {"lat": 40.67167217010728, "lng": -74.00009737989272}}}, "icon": "https://maps.gstatic.com/mapfiles/place_api/icons/gas_station-71.png", "id": "a9f09481be8b65bedef7d7ad1f71bf5361ddee40", "name": "HAMILTON AVE STATION", "opening_hours": {"open_now": true}, "photos": [{"height": 3024, "html_attributions": ["<a href=\"https://maps.google.com/maps/contrib/100146876602562933271\">mtandiz</a>"], "photo_reference": "CmRaAAAAemC9OwbKrKyUrp2tnL7JojQfYiKWTMliFLSedyifGj4w-zTtyX4aizlqVajniNHV1v_iILl_uISC1FtixQnqFlXq8Whqh3nWGx4WT_bmla96q3LQl2YVPIErHk64B8UBEhCZHiMqbusSAvK12hLWXlEYGhRXJkwUllbjorpkC_ABt98SktAOzQ", "width": 4032}], "place_id": "ChIJr10rpvZawokR8Yq9WJddnmE", "plus_code": {"compound_code": "M2F2+6C Brooklyn, New York", "global_code": "87G8M2F2+6C"}, "rating": 4, "reference": "ChIJr10rpvZawokR8Yq9WJddnmE", "scope": "GOOGLE", "types": ["gas_station", "point_of_interest", "establishment"], "user_ratings_total": 125, "vicinity": "375 Hamilton Ave, Brooklyn"}, {"geometry": {"location": {"lat": 40.717032, "lng": -74.0552232}, "viewport": {"northeast": {"lat": 40.71837972989272, "lng": -74.05389437010729}, "southwest": {"lat": 40.71568007010728, "lng": -74.05659402989272}}}, "icon": "https://maps.gstatic.com/mapfiles/place_api/icons/gas_station-71.png", "id": "6504e588c71c6d0865bb9c68e61ed1d12967acdf", "name": "Sunoco Gas Station", "opening_hours": {"open_now": true}, "photos": [{"height": 280, "html_attributions": ["<a href=\"https://maps.google.com/maps/contrib/116465964516699627019\">Sunoco Gas Station</a>"], "photo_reference": "CmRaAAAAi9r7N85JwYfr2YcGSWmqWpq5hGrMZcRriKcMSr4Q9ekBxwrzTGduq3EL17sbfguW3qhXnhOpE9zKDRko0aUqSVbUp53BVCJFB5SgGWRqHCKzY-Yu9BBQtJ_NOasJ7EVyEhDa6uwXbzTpkiba302cmRFSGhTDP3aWCrmRlpcqi835yCC7pypjhQ", "width": 280}], "place_id": "ChIJcSyyPchQwokR4BH9v6AAqA0", "plus_code": {"compound_code": "PW8V+RW Jersey City, New Jersey", "global_code": "87G7PW8V+RW"}, "price_level": 2, "rating": 1.8, "reference": "ChIJcSyyPchQwokR4BH9v6AAqA0", "scope": "GOOGLE", "types": ["gas_station", "convenience_store", "car_repair", "food", "point_of_interest", "store", "establishment"], "user_ratings_total": 28, "vicinity": "465 Grand St, Jersey City"}], "status": "OK"}