{"html_attributions": [], "next_page_token": "CrQCLAEAAAGgTunKA_vujLyDDAuTdvrT9TERt-raNGorw-intZDOCH82r4b5eo7GauVhu27Zl8QBYx7GwacPANze8ZEwU94IOhY9ojxymBW6fIlLuVGLNfLX_qN340pkPZPurkj4CvC50VuytWGr83M9G3Mm7lgD8N-xfNf-bRsLza2mZyXvJoWHSX5gRdRzZ86hzaW2_mkQaEVBIY4-c_4uo2m0sVNjUXQXQ4AcesdBlwz2ZpDHjza9aFcQYfelMkCwX8-U6rN-9tq23SkxXAmD3YEwjg1jOCOSJnPk5ewbNsmvwMwZz7VnsGXdH9-1z1nCvTKNvSoobJCuA-xtK8kARzl9wbNz1uic_cKJzjJytt8tx6K8-hjs0axg4aUp3d65fJMZqcZX7rlwf7m6miKY3QlqxHMSEMARuXdzAbmojL8Q-T_ByM8aFKHQmasN1QxciLevsufTe-b6JI-0", "results": [{"geometry": {"location": {"lat": 40.7389859, "lng": -74.00347169999999}, "viewport": {"northeast": {"lat": 40.74032372989273, "lng": -74.00203252010728}, "southwest": {"lat": 40.73762407010729, "lng": -74.00473217989271}}}, "icon": "https://maps.gstatic.com/mapfiles/place_api/icons/gas_station-71.png", "id": "2b258f61df6e7855df6c4b06c64e3c6dae861993", "name": "LIBERTY 8TH AVENUE", "opening_hours": {"open_now": true}, "photos": [{"height": 3480, "html_attributions": ["<a href=\"https://maps.google.com/maps/contrib/114635386287934318875\">Marta Wyngaard</a>"], "photo_reference": "CmRaAAAAPac6e1xRykLkhYfSGskXMZLN8CRwMGOxNI3OJQWsIoOzQDg3Ob5hc9dgT0Wm0sil-UKkr5asd2pz1CyF9oWhBqZClh747agzORbycxto6tFrEhnbMnhvQ9p7pKSDohdWEhBLwqBc7BRNwmXQHPUZVYM6GhR_qIdrxr7vCzcIiSAJD2wYNkXAEA", "width": 4640}], "place_id": "ChIJxQdXzb9ZwokRetTp0LGQD2o", "plus_code": {"compound_code": "PXQW+HJ New York", "global_code": "87G7PXQW+HJ"}, "rating": 3.2, "reference": "ChIJxQdXzb9ZwokRetTp0LGQD2o", "scope": "GOOGLE", "types": ["gas_station", "point_of_interest", "establishment"], "user_ratings_total": 312, "vicinity": "51-63 8th Ave, New York"}, {"geometry": {"location": {"lat": 40.7351567, "lng": -73.974515}, "viewport": {"northeast": {"lat": 40.73646062989272, "lng": -73.97336422010729}, "southwest": {"lat": 40.73376097010728, "lng": -73.97606387989272}}}, "icon": "https://maps.gstatic.com/mapfiles/place_api/icons/gas_station-71.png", "id": "abbd0eb38ddaafd1f6ff7f700b6dc6822ffc15b6", "name": "BP", "opening_hours": {"open_now": true}, "photos": [{"height": 2803, "html_attributions": ["<a href=\"https://maps.google.com/maps/contrib/115245019345286808364\">Jon</a>"], "photo_reference": "CmRaAAAAbTvasyFRUExPx9OVpOFdOw65RBOv7N-tTloR6wEGz4grcI4Ccr786whic-PwQvLy6AVa1ffxMfnTMExCumtDCzGbJmrBJM_s01NU2FR8Cou5JRCCN_3xpsKYqFtWu8WtEhBJK8x99WfUeUNrc5dKF9ofGhRGokmw4LfB2AOp_Y9fSzYRcPdYaw", "width": 3640}], "place_id": "ChIJxR3ywwxZwokRYMTLpKgWg4A", "plus_code": {"compound_code": "P2PG+35 New York", "global_code": "87G8P2PG+35"}, "rating": 3.1, "reference": "ChIJxR3ywwxZwokRYMTLpKgWg4A", "scope": "GOOGLE", "types": ["gas_station", "point_of_interest", "establishment"], "user_ratings_total": 187, "vicinity": "2430 FDR Dr, New York"}, {"geometry": {"location": {"lat": 40.7559733, "lng": -73.99788880000001}, "viewport": {"northeast": {"lat": 40.75724737989272, "lng": -73.99664937010728}, "southwest": {"lat": 40.75454772010728, "lng": -73.99934902989273}}}, "icon": "https://maps.gstatic.com/mapfiles/place_api/icons/gas_station-71.png", "id": "1fa74e2044aa561b1df4ecef8d331b76c1abfe4c", "name": "BP", "opening_hours": {"open_now": true}, "photos": [{"height": 1440, "html_attributions": ["<a href=\"https://maps.google.com/maps/contrib/113650357208073405047\">Joshua Bernstein</a>"], "photo_reference": "CmRaAAAA9F0WhiYiVM_1KJEGBqoeQYbkCcBDL-1mlWuxibLm1iRuJSHYq3NIq0Ux_T28ZsywiOh_fTEnZJ1os5rlj330SM_q-vHon9h-YijoSLB0N9Yfc9ObaEtHiPjK5JUhhJJyEhBX_3Hr463KSGcI2bddyBnMGhQ13lnrjwpqKSSpASDnL3Vtl4PXoQ", "width": 2560}], "place_id": "ChIJQ8aGILNZwokRrd9xqr2bUd0", "plus_code": {"compound_code": "Q242+9R New York", "global_code": "87G8Q242+9R"}, "rating": 3.5, "reference": "ChIJQ8aGILNZwokRrd9xqr2bUd0", "scope": "GOOGLE", "types": ["gas_station", "atm", "convenience_store", "finance", "food", "point_of_interest", "store", "establishment"], "user_ratings_total": 80, "vicinity": "466 10th Ave, New York"}, {"geometry": {"location": {"lat": 40.7663124, "lng": -73.9940142}, "viewport": {"northeast": {"lat": 40.76771072989273, "lng": -73.99276852010728}, "southwest": {"lat": 40.76501107010728, "lng": -73.99546817989271}}}, "icon": "https://maps.gstatic.com/mapfiles/place_api/icons/gas_station-71.png", "id": "3f54b6d8d8098095a09cf768f881167194271bf0", "name": "BISMA MOBIL", "opening_hours": {"open_now": true}, "photos": [{"height": 1830, "html_attributions": ["<a href=\"https://maps.google.com/maps/contrib/105170431124683218627\">Marc Gonzalez</a>"], "photo_reference": "CmRaAAAA9sPPsUOT4KV_A9mXdGup6ttZXS2SB0f99DuFBPRsdVKi772LpSDWyAUXz9jJlRyV9OpPbjt5Lpg7FyVicqDpENYzuhtyfCDezknVlFT9MRexmMwvGRKxsSSUy5Sh4Fx0EhDD4vi-UNgIqfrEYeVNcRZRGhQZEx1obPE44uuL5CCl8oswTs_P3A", "width": 2060}], "place_id": "ChIJH9qNB1BYwokRYaZyDVGQiKk", "plus_code": {"compound_code": "Q284+G9 New York", "global_code": "87G8Q284+G9"}, "rating": 3, "reference": "ChIJH9qNB1BYwokRYaZyDVGQiKk", "scope": "GOOGLE", "types": ["gas_station", "point_of_interest", "establishment"], "user_ratings_total": 364, "vicinity": "718 11th Ave, New York"}, {"geometry": {"location": {"lat": 40.7335091, "lng": -73.952507}, "viewport": {"northeast": {"lat": 40.73482422989272, "lng": -73.95103582010728}, "southwest": {"lat": 40.73212457010727, "lng": -73.95373547989271}}}, "icon": "https://maps.gstatic.com/mapfiles/place_api/icons/gas_station-71.png", "id": "39db0781f3c9227b1f18aa92ab7a24094b01d3f0", "name": "Gulf MJB Service Station", "opening_hours": {"open_now": true}, "photos": [{"height": 4032, "html_attributions": ["<a href=\"https://maps.google.com/maps/contrib/115074077063757267641\">A Google User</a>"], "photo_reference": "CmRaAAAApaOA_atGtiC6166YBMm2H3ZUZQz-_bTHVJUqVw4OvYl09jf6DtJA5QbICVcj_h4bbiQjFfOgINKoxm0hvYjs1F8XZrZ1OI9KR-tX7HAqzqFIOYUAXKSQsL-lmHzzKAxwEhDyZux-z5hB2ZHV0-dNu0RAGhTJ-b72lqOa3MMcsrXsYlg4HzU60Q", "width": 3024}], "place_id": "ChIJa2-tIDlZwokRusXNzSxfYzQ", "plus_code": {"compound_code": "P2MW+CX Brooklyn, New York", "global_code": "87G8P2MW+CX"}, "rating": 3.7, "reference": "ChIJa2-tIDlZwokRusXNzSxfYzQ", "scope": "GOOGLE", "types": ["gas_station", "point_of_interest", "establishment"], "user_ratings_total": 68, "vicinity": "321 McGuinness Blvd #1817, Brooklyn"}, {"geometry": {"location": {"lat": 40.7309379, "lng": -73.9515021}, "viewport": {"northeast": {"lat": 40.73239212989272, "lng": -73.95019082010728}, "southwest": {"lat": 40.72969247010727, "lng": -73.95289047989272}}}, "icon": "https://maps.gstatic.com/mapfiles/place_api/icons/gas_station-71.png", "id": "3ac9faa447df953b99a0a6d59f083ddd3c8b95d5", "name": "BP", "opening_hours": {"open_now": true}, "photos": [{"height": 4032, "html_attributions": ["<a href=\"https://maps.google.com/maps/contrib/115654494169012522482\">Abdullah Al Mamun</a>"], "photo_reference": "CmRaAAAAuZwhkLarzxJYmtqFHfk3X7Fv7M_y5T7dq1doK6yL8VYL4USAAeTeUIPRkKqIJ0U9CnAgMhRqigTPewuc34h_bdNY7GoGuMgH1hcGnkXEsdXODOMVQ0k_bPe9ftUi7fXtEhCpJt5wpi1A0RH9HujQf8EnGhSDka1FJZjhrQOgg-bts-CFZOfSvw", "width": 3024}], "place_id": "ChIJB5_FfEdZwokRezsu1O9j5ME", "plus_code": {"compound_code": "P2JX+99 Brooklyn, New York", "global_code": "87G8P2JX+99"}, "rating": 4.2, "reference": "ChIJB5_FfEdZwokRezsu1O9j5ME", "scope": "GOOGLE", "types": ["gas_station", "atm", "convenience_store", "finance", "food", "point_of_interest", "store", "establishment"], "user_ratings_total": 30, "vicinity": "256 McGuinness Blvd, Brooklyn"}, {"geometry": {"location": {"lat": 40.7539861, "lng": -74.028958}, "viewport": {"northeast": {"lat": 40.75524962989272, "lng": -74.02750617010727}, "southwest": {"lat": 40.75254997010727, "lng": -74.03020582989272}}}, "icon": "https://maps.gstatic.com/mapfiles/place_api/icons/gas_station-71.png", "id": "a36f2ee8b0601bcf5c99d9c51e62239fa4c259fc", "name": "BP", "opening_hours": {"open_now": true}, "photos": [{"height": 2304, "html_attributions": ["<a href=\"https://maps.google.com/maps/contrib/105170431124683218627\">Marc Gonzalez</a>"], "photo_reference": "CmRaAAAAix2HVw2EiqBvMBJ4bae8eHIcj_DpzqrZGma8VqPdGgxRI7phh1KsauLAN5LCghnJ87Ey0buhzsEfNqmOslgmnXgH0s3X-whsuiKUmtmn8G_EQaf3VLkG1LGHAYAyhUy1EhBMIlT1vZ1xVpMBm4jpcUKxGhRXQzhMuD8d5pFc5rUGzH5w7uT7_w", "width": 3072}], "place_id": "ChIJY_MNzNdZwokRu_yRr2gwTfg", "plus_code": {"compound_code": "QX3C+HC Hoboken, New Jersey", "global_code": "87G7QX3C+HC"}, "rating": 2.4, "reference": "ChIJY_MNzNdZwokRu_yRr2gwTfg", "scope": "GOOGLE", "types": ["gas_station", "atm", "convenience_store", "finance", "food", "point_of_interest", "store", "establishment"], "user_ratings_total": 41, "vicinity": "1400 Park Ave, Hoboken"}, {"geometry": {"location": {"lat": 40.7286351, "lng": -73.9502249}, "viewport": {"northeast": {"lat": 40.72993802989272, "lng": -73.94890897010727}, "southwest": {"lat": 40.72723837010728, "lng": -73.95160862989272}}}, "icon": "https://maps.gstatic.com/mapfiles/place_api/icons/gas_station-71.png", "id": "660a428b2761bd1a22fa662a727750d73f08aa1d", "name": "Gulf Gas Station", "opening_hours": {}, "photos": [{"height": 4032, "html_attributions": ["<a href=\"https://maps.google.com/maps/contrib/115728342827887775821\">A Google User</a>"], "photo_reference": "CmRaAAAAdWOu6Vu-3IRisnP1XSd97oORH8SNVLEoB3XY0pdAbfF5pXsvyOK23YoPjxMMrq6a62T-Z-USlrgXUV4a1E4iiV5C1kTJnVApA2uBKtCavPuMEPs0FIX_4panR9KGA0p_EhCJHIugiI-nvo2P78iLcw5bGhTIJ9RkU_KkW8p2S3ZubP2eAsb9Qg", "width": 3024}], "place_id": "ChIJlwGNpkdZwokRXqTPhVcgELA", "plus_code": {"compound_code": "P2HX+FW Brooklyn, New York", "global_code": "87G8P2HX+FW"}, "rating": 3.9, "reference": "ChIJlwGNpkdZwokRXqTPhVcgELA", "scope": "GOOGLE", "types": ["gas_station", "point_of_interest", "establishment"], "user_ratings_total": 34, "vicinity": "176 McGuinness Blvd, Brooklyn"}, {"geometry": {"location": {"lat": 40.730693, "lng": -73.948087}, "viewport": {"northeast": {"lat": 40.73209237989271, "lng": -73.94676442010727}, "southwest": {"lat": 40.72939272010727, "lng": -73.94946407989272}}}, "icon": "https://maps.gstatic.com/mapfiles/place_api/icons/gas_station-71.png", "id": "3a1a97eb52fa70e95ef688d97637ddfaaa2a3103", "name": "Gas Station", "opening_hours": {}, "place_id": "ChIJTweWNe1ZwokR1NxQ_wFvQv4", "plus_code": {"compound_code": "P3J2+7Q Brooklyn, New York", "global_code": "87G8P3J2+7Q"}, "rating": 4.6, "reference": "ChIJTweWNe1ZwokR1NxQ_wFvQv4", "scope": "GOOGLE", "types": ["gas_station", "point_of_interest", "establishment"], "user_ratings_total": 17, "vicinity": "Brooklyn"}, {"geometry": {"location": {"lat": 40.7205874, "lng": -73.9442474}, "viewport": {"northeast": {"lat": 40.72187902989272, "lng": -73.94299512010728}, "southwest": {"lat": 40.71917937010727, "lng": -73.94569477989272}}}, "icon": "https://maps.gstatic.com/mapfiles/place_api/icons/gas_station-71.png", "id": "13c4dc05941d03514dab2d2bc8f0b6ec71dbce63", "name": "Sunoco Gas Station", "opening_hours": {"open_now": true}, "photos": [{"height": 4032, "html_attributions": ["<a href=\"https://maps.google.com/maps/contrib/100146876602562933271\">mtandiz</a>"], "photo_reference": "CmRaAAAASDPmZU4ZtgfjQbuYEXEiK2Dprxs7rvwB3mtE-DcsvC41rHFlqzojVDEZpLFuI-XMZyxF_119fHTikq3jIk4HX3U58TvTSlB0RQomPLoqTtFkzFMeRV71PC1SG-pCQZ3sEhCBEf2WuQ3G7MI-Eow7gduCGhQ3-zLCaksZKZzwV04O7dFMqdnsYw", "width": 3024}], "place_id": "ChIJwUK7MU5ZwokRWKkfF8a5Hws", "plus_code": {"compound_code": "P3C4+68 Brooklyn, New York", "global_code": "87G8P3C4+68"}, "price_level": 2, "rating": 3.4, "reference": "ChIJwUK7MU5ZwokRWKkfF8a5Hws", "scope": "GOOGLE", "types": ["gas_station", "convenience_store", "food", "point_of_interest", "store", "establishment"], "user_ratings_total": 48, "vicinity": "497 Meeker Ave, Brooklyn"}, {"geometry": {"location": {"lat": 40.7299912, "lng": -74.0418554}, "viewport": {"northeast": {"lat": 40.73143287989271, "lng": -74.04027067010728}, "southwest": {"lat": 40.72873322010727, "lng": -74.04297032989271}}}, "icon": "https://maps.gstatic.com/mapfiles/place_api/icons/gas_station-71.png", "id": "efc3ec4129cb06df189372a30acc28ba44cae5de", "name": "Gulf Gas Station", "opening_hours": {}, "photos": [{"height": 2988, "html_attributions": ["<a href=\"https://maps.google.com/maps/contrib/101151931225978101832\">TAMBA Edouard</a>"], "photo_reference": "CmRaAAAAS6nXGuC2Ruhurm1Phtc0aqolhEu6oNW91YN3JK0SqbkiRMO0opJUJ_OpMkEfMoFxOFDfnicVeKWYFmk14f9qiMuGaSayXgKXIttq_y04kqsunhO-sq7WCeEicaSnk9NUEhCgmQWKjbTlPIdMFacA_-URGhRyNzvUw9WylypO-vhCDv5mLWktlw", "width": 5312}], "place_id": "ChIJ-Xqk7U5XwokRNscxEbytbZU", "plus_code": {"compound_code": "PXH5+X7 Jersey City, New Jersey", "global_code": "87G7PXH5+X7"}, "rating": 3.6, "reference": "ChIJ-Xqk7U5XwokRNscxEbytbZU", "scope": "GOOGLE", "types": ["gas_station", "point_of_interest", "establishment"], "user_ratings_total": 76, "vicinity": "183 12th St, Jersey City"}, {"geometry": {"location": {"lat": 40.7524963, "lng": -73.9391277}, "viewport": {"northeast": {"lat": 40.75376077989272, "lng": -73.93778687010727}, "southwest": {"lat": 40.75106112010727, "lng": -73.94048652989272}}}, "icon": "https://maps.gstatic.com/mapfiles/place_api/icons/gas_station-71.png", "id": "12bddc265e0fbda099eaf1ceb9afe9623aa9f79c", "name": "E-Z STATION", "opening_hours": {"open_now": true}, "photos": [{"height": 4608, "html_attributions": ["<a href=\"https://maps.google.com/maps/contrib/111080212749588704543\">Troy Haar</a>"], "photo_reference": "CmRaAAAAibnmEIB9ZqozcII5Lc3x1P8jnaf3Z2frr81Np8Z3v3WFZ9tgYu7vCSgKIBanD8hAogWMKT-CyiMA1JswxM3T5R_b1wBwChSQQtLN-9jTVKdIWS0xqTwz5szLs8iguhKbEhBUs1EXJCIM2Ey5PbFvCKgcGhSepVY8I9nVrdMPythoaG15K_yz8w", "width": 2592}], "place_id": "ChIJs_VGXtRYwokRTX-FwLsGQFw", "plus_code": {"compound_code": "Q326+X8 New York", "global_code": "87G8Q326+X8"}, "rating": 4, "reference": "ChIJs_VGXtRYwokRTX-FwLsGQFw", "scope": "GOOGLE", "types": ["gas_station", "point_of_interest", "establishment"], "user_ratings_total": 75, "vicinity": "4040 Crescent St, Long Island City"}, {"geometry": {"location": {"lat": 40.73219040000001, "lng": -74.0440945}, "viewport": {"northeast": {"lat": 40.73356622989272, "lng": -74.04259697010728}, "southwest": {"lat": 40.73086657010727, "lng": -74.04529662989272}}}, "icon": "https://maps.gstatic.com/mapfiles/place_api/icons/gas_station-71.png", "id": "f71057b948351592e35910811fed0ed5ade56524", "name": "Sunoco Gas Station", "opening_hours": {"open_now": true}, "photos": [{"height": 4032, "html_attributions": ["<a href=\"https://maps.google.com/maps/contrib/100146876602562933271\">mtandiz</a>"], "photo_reference": "CmRaAAAAB4EJxxSZeAqOJMfycYBu5z1BzqEZrpnwc3KRz66HYJterJPQQEzlxNK0PVL8EBgmpGf1Mn6vRNz_4KVDKz5RjTvG6M8zm1TRowgpkr_id_eNm0TZwOqAbaHN98TjBWrLEhCjVHp5RmiBYx0b6ObrplkTGhSzBplQms0CQBDwmG86ZCrzTtZ_ug", "width": 3024}], "place_id": "ChIJhVmyL1BXwokRj9fJJHBjiHk", "plus_code": {"compound_code": "PXJ4+V9 Jersey City, New Jersey", "global_code": "87G7PXJ4+V9"}, "price_level": 2, "rating": 2.9, "reference": "ChIJhVmyL1BXwokRj9fJJHBjiHk", "scope": "GOOGLE", "types": ["gas_station", "convenience_store", "food", "point_of_interest", "store", "establishment"], "user_ratings_total": 8, "vicinity": "Jersey Ave &, 14th St, Jersey City"}, {"geometry": {"location": {"lat": 40.71061539999999, "lng": -73.9489759}, "viewport": {"northeast": {"lat": 40.71196372989273, "lng": -73.94764367010727}, "southwest": {"lat": 40.70926407010728, "lng": -73.95034332989272}}}, "icon": "https://maps.gstatic.com/mapfiles/place_api/icons/gas_station-71.png", "id": "6f5e1da56e22aab3ac84e55ac91e0f55aa823114", "name": "CONOCO 24-Hr. Full-Service", "opening_hours": {"open_now": true}, "photos": [{"height": 3072, "html_attributions": ["<a href=\"https://maps.google.com/maps/contrib/103203033458719447179\">Marcos Rodriguez</a>"], "photo_reference": "CmRaAAAAEcmpr6EEdvHfB6WydCKFQXXtL1yWpyz6G6GIkS_nBZHsTM8U7tkZwNYuLAW8BkxhXtdS_jeZPJMUjteQiI9Th2prFa8K09Klgy8JbiLP7tneYgH3xjUVWPQuvieXBgGqEhAFoHZfUHKeO8yOTlKSFHilGhRN7ptUmLcwbDxSsZRGyRgW6CENvQ", "width": 4096}], "place_id": "ChIJRfrvoOJbwokRSTj896Y7y0Q", "plus_code": {"compound_code": "P362+6C Brooklyn, New York", "global_code": "87G8P362+6C"}, "rating": 4, "reference": "ChIJRfrvoOJbwokRSTj896Y7y0Q", "scope": "GOOGLE", "types": ["gas_station", "point_of_interest", "establishment"], "user_ratings_total": 100, "vicinity": "451 Lorimer St, Brooklyn"}, {"geometry": {"location": {"lat": 40.753895, "lng": -73.93162199999999}, "viewport": {"northeast": {"lat": 40.75513842989272, "lng": -73.93037102010727}, "southwest": {"lat": 40.75243877010728, "lng": -73.93307067989272}}}, "icon": "https://maps.gstatic.com/mapfiles/place_api/icons/generic_business-71.png", "id": "e52cc4196c91937879e4ad0d8ce18df28fe3a470", "name": "ZA & D. Service Station", "opening_hours": {"open_now": false}, "photos": [{"height": 3000, "html_attributions": ["<a href=\"https://maps.google.com/maps/contrib/100853654666324482699\">Anthony Koulizakis</a>"], "photo_reference": "CmRaAAAAmwkCWeLzKFqlRJGQ5F3_TGmcHOe8e6JfZPaWKvYAuViw2PVUFq5PV479Sa4hl190TPL4RuFWuaET4UucFklNkmDAgUoXYyvVSsFTY4NSYtrDxlj1NpdkCzJKLZX3XI8ZEhCquMpiq3Eg1neoouXjykWzGhSnAIduZxyP5t7MZCDSV2MfBy4d1Q", "width": 4000}], "place_id": "ChIJ1aNvayxfwokREcVjbnZmDxQ", "plus_code": {"compound_code": "Q339+H9 Long Island City, Queens, NY", "global_code": "87G8Q339+H9"}, "rating": 5, "reference": "ChIJ1aNvayxfwokREcVjbnZmDxQ", "scope": "GOOGLE", "types": ["gas_station", "car_repair", "point_of_interest", "establishment"], "user_ratings_total": 23, "vicinity": "31-5 38th Ave, Long Island City"}, {"geometry": {"location": {"lat": 40.7739212, "lng": -74.0342132}, "viewport": {"northeast": {"lat": 40.77523507989272, "lng": -74.03289367010727}, "southwest": {"lat": 40.77253542010728, "lng": -74.03559332989272}}}, "icon": "https://maps.gstatic.com/mapfiles/place_api/icons/gas_station-71.png", "id": "d557fa2c87dc437727a651b6b2d92b88031de9bb", "name": "Station Gas Nj", "place_id": "ChIJKf15amlXwokRI-FV2Ycx4sw", "plus_code": {"compound_code": "QXF8+H8 Union City, New Jersey", "global_code": "87G7QXF8+H8"}, "rating": 5, "reference": "ChIJKf15amlXwokRI-FV2Ycx4sw", "scope": "GOOGLE", "types": ["gas_station", "point_of_interest", "establishment"], "user_ratings_total": 2, "vicinity": "820 31st St, Union City"}, {"geometry": {"location": {"lat": 40.7860356, "lng": -74.0110064}, "viewport": {"northeast": {"lat": 40.78751172989272, "lng": -74.00976002010728}, "southwest": {"lat": 40.78481207010728, "lng": -74.01245967989273}}}, "icon": "https://maps.gstatic.com/mapfiles/place_api/icons/gas_station-71.png", "id": "d549ef36d6e0ec51f79cea4c100495a7861d27ae", "name": "RAMIREZ & SONS SERVICE STATION", "opening_hours": {"open_now": true}, "photos": [{"height": 3024, "html_attributions": ["<a href=\"https://maps.google.com/maps/contrib/117635884598597996727\">Solomon Bedi</a>"], "photo_reference": "CmRaAAAABUkXO5ESMvbOwIbU2rJ8YMAZH7BDRcuAzR8V7jr9Kb5UPBEJ3eEIlzpFYMBSSeEQn_CE_bOZUVDpTuSnA6xFmaAjMVsCrMGgpGUt_iU_jj3xZvGt-7YJDuzbuDchEHnwEhCH21gudU4-gI-hzzFKqeqJGhRnhGp4neY42192hUQXWfAstjKoZQ", "width": 4032}], "place_id": "ChIJXXjzyhNYwokR7F-Oo0RXl1o", "plus_code": {"compound_code": "QXPQ+CH West New York, New Jersey", "global_code": "87G7QXPQ+CH"}, "rating": 4.2, "reference": "ChIJXXjzyhNYwokR7F-Oo0RXl1o", "scope": "GOOGLE", "types": ["gas_station", "point_of_interest", "establishment"], "user_ratings_total": 185, "vicinity": "165 60th St, West New York"}, {"geometry": {"location": {"lat": 40.6941619, "lng": -73.9613537}, "viewport": {"northeast": {"lat": 40.69543252989272, "lng": -73.95989127010729}, "southwest": {"lat": 40.69273287010728, "lng": -73.96259092989273}}}, "icon": "https://maps.gstatic.com/mapfiles/place_api/icons/gas_station-71.png", "id": "e36cec8258ea364d2214b33008372c1fdb8acf26", "name": "Citgo", "opening_hours": {"open_now": true}, "photos": [{"height": 4032, "html_attributions": ["<a href=\"https://maps.google.com/maps/contrib/115728342827887775821\">A Google User</a>"], "photo_reference": "CmRaAAAAgjghxYB1-BZZQ9kt-KRpwK1Y5C3vpYxKrH-pd8JXPp7nKnbAnN8DbHBwYdg6-gxWOxbl-TmO4Y5lCeY0E_Hz9s7b1xM7Kso918fzpDdFP9NM0qjqW4tDvEPdZmqOuN-2EhDjz3D-9o618MGqUKfIxdGuGhQP8bpAj8eLAA0k6BeQRaQHs8ApTA", "width": 3024}], "place_id": "ChIJBTwVQMBbwokReAI3R7BJWqQ", "plus_code": {"compound_code": "M2VQ+MF Brooklyn, New York", "global_code": "87G8M2VQ+MF"}, "rating": 3.8, "reference": "ChIJBTwVQMBbwokReAI3R7BJWqQ", "scope": "GOOGLE", "types": ["gas_station", "point_of_interest", "establishment"], "user_ratings_total": 70, "vicinity": "569 Myrtle Ave, Brooklyn"}, {"geometry": {"location": {"lat": 40.7726262, "lng": -74.0425242}, "viewport": {"northeast": {"lat": 40.77397762989272, "lng": -74.04120142010727}, "southwest": {"lat": 40.77127797010728, "lng": -74.04390107989272}}}, "icon": "https://maps.gstatic.com/mapfiles/place_api/icons/gas_station-71.png", "id": "12a3b6ef48b3c2991b1a7c4d644d30efa9be47ed", "name": "BP", "opening_hours": {"open_now": true}, "photos": [{"height": 3024, "html_attributions": ["<a href=\"https://maps.google.com/maps/contrib/104364251792419573793\">samir patel</a>"], "photo_reference": "CmRaAAAA2sUlLp-LBjDvOi6u6Y5fbrb08FwmPVZKD0RUul3cBg0LomqE1oleU6HWIjOJ7Nnyer-2msU70qzbXaURugymebzAu4jE1xE15iXN9FJ-YSJ7i-XIwzmU8YeQK99hGwWQEhDAlO6lQgPw0VGJsWxjDzelGhTfrA2N0JQTJMrbb_cK_1ufV7eQpw", "width": 4032}], "place_id": "ChIJKdtxuppXwokRfn1dsxw5P_o", "plus_code": {"compound_code": "QXF4+3X North Bergen, New Jersey", "global_code": "87G7QXF4+3X"}, "rating": 3.6, "reference": "ChIJKdtxuppXwokRfn1dsxw5P_o", "scope": "GOOGLE", "types": ["gas_station", "atm", "convenience_store", "finance", "food", "point_of_interest", "store", "establishment"], "user_ratings_total": 22, "vicinity": "2501 Tonnelle Ave., North Bergen"}, {"geometry": {"location": {"lat": 40.754639, "lng": -74.05561530000001}, "viewport": {"northeast": {"lat": 40.75595377989271, "lng": -74.05444082010729}, "southwest": {"lat": 40.75325412010727, "lng": -74.05714047989272}}}, "icon": "https://maps.gstatic.com/mapfiles/place_api/icons/gas_station-71.png", "id": "cdc2b1034cfc11fa35724e3cb48e4ed9d956741e", "name": "Sunoco Gas Station", "opening_hours": {"open_now": true}, "photos": [{"height": 1080, "html_attributions": ["<a href=\"https://maps.google.com/maps/contrib/103275424471638433853\">Bryan Walker</a>"], "photo_reference": "CmRaAAAAVaxlBFFTpfqzeo5uAuBIphY9WstrXw359Be0y8bIWmJOTZzcb4lUnbSAf5lKiBIw2SfEoYz0xZJcZRkSmpY-LmHs_HoQ1jEKNhEb-32SAdKVg4ATOGCIM2_5SjT7PaX7EhCO621hNhJPR2pCvaAKUPMEGhQD-MbVMqE8rppbbbQLc5GFu9yypg", "width": 1920}], "place_id": "ChIJ49TrkRJXwokRKI5eC4Zh4H8", "plus_code": {"compound_code": "QW3V+VQ Jersey City, New Jersey", "global_code": "87G7QW3V+VQ"}, "price_level": 2, "rating": 3.5, "reference": "ChIJ49TrkRJXwokRKI5eC4Zh4H8", "scope": "GOOGLE", "types": ["gas_station", "point_of_interest", "establishment"], "user_ratings_total": 22, "vicinity": "720 Tonnelle Ave., Jersey City"}], "status": "OK"}