{"html_attributions": [], "next_page_token": "CrQCLAEAAOGHJaD8s3cfMRIZkVUPfpnqM-1s-8-F2358ujxFAzjOogUuedR7ELtUVdnOMUD3DZUqWkhQv50L2ngrM_pARC7jR5byQTGV4ZMIsM-zn5wMhVE6Es8C3JgyjCPOVU9R4EcUESpbcbsWg-NMghtiO3A5vXRsNSVBMQVwRR2DORytr1NnfHfYVFYobuwGNqLL3WDP7WIM_Eb3g5HK1Qbk7Y6zrdQ-36SZehVLPOxNEHJUp9JdLPQxdtqteJ55ws_xzNIydK8C-AQPnQey62IM9Sp_lrQoyssm8ZpdavvBd8zklTIEVKcZuQzr_SilKkFuP2EdOOcHcIowXEes3M005htzc8ewjMs5irj8_mhkYqFyZE4rHUmSSJvtZIp6osxsibuZKF9qcU1NIu-0HJUcUeYSEMrxZeHCfiOYylSag2Q3mAUaFKaVmF_pvbV7zcn5_4v4Oqav4WQa", "results": [{"geometry": {"location": {"lat": 40.7389859, "lng": -74.00347169999999}, "viewport": {"northeast": {"lat": 40.74032372989273, "lng": -74.00203252010728}, "southwest": {"lat": 40.73762407010729, "lng": -74.00473217989271}}}, "icon": "https://maps.gstatic.com/mapfiles/place_api/icons/gas_station-71.png", "id": "2b258f61df6e7855df6c4b06c64e3c6dae861993", "name": "LIBERTY 8TH AVENUE", "opening_hours": {"open_now": true}, "photos": [{"height": 3480, "html_attributions": ["<a href=\"https://maps.google.com/maps/contrib/114635386287934318875\">Marta Wyngaard</a>"], "photo_reference": "CmRaAAAAUMrdQDffTuRedtG00xYxrMR-_61uZ_lucgo1O_KnzYNHCr7v-ecL9QoHlCGUAVaTLOH-QrRxD5KmQjsH_aowjg8oCO562FRCbHgAZQZk8i4ttTS2PQioA4NnMhF0GFu4EhC2uqhq-Fhg7NXXNf0NJ5LzGhQ8fC64Dl0hCmkZW4Hny1SlRU8aBw", "width": 4640}], "place_id": "ChIJxQdXzb9ZwokRetTp0LGQD2o", "plus_code": {"compound_code": "PXQW+HJ New York", "global_code": "87G7PXQW+HJ"}, "rating": 3.2, "reference": "ChIJxQdXzb9ZwokRetTp0LGQD2o", "scope": "GOOGLE", "types": ["gas_station", "point_of_interest", "establishment"], "user_ratings_total": 312, "vicinity": "51-63 8th Ave, New York"}, {"geometry": {"location": {"lat": 40.7351567, "lng": -73.974515}, "viewport": {"northeast": {"lat": 40.73646062989272, "lng": -73.97336422010729}, "southwest": {"lat": 40.73376097010728, "lng": -73.97606387989272}}}, "icon": "https://maps.gstatic.com/mapfiles/place_api/icons/gas_station-71.png", "id": "abbd0eb38ddaafd1f6ff7f700b6dc6822ffc15b6", "name": "BP", "opening_hours": {"open_now": true}, "photos": [{"height": 2803, "html_attributions": ["<a href=\"https://maps.google.com/maps/contrib/115245019345286808364\">Jon</a>"], "photo_reference": "CmRaAAAA7mvHP3KK67S0H8QTKAR0NaCOo2omysB1ndNSPFGHpb2uzIMJepo2FIBN0EWviFumlRG4LaQSnH8qJz8oLk9tN4TT9tl6Jg_Yt8G_eiTDwCX1116M7z-dncgvv-yUqDa2EhDIrtRYD6sueKTXlOlVC6u5GhTcnOY0rPwi-prq27-2HDGJP77OvQ", "width": 3640}], "place_id": "ChIJxR3ywwxZwokRYMTLpKgWg4A", "plus_code": {"compound_code": "P2PG+35 New York", "global_code": "87G8P2PG+35"}, "rating": 3.1, "reference": "ChIJxR3ywwxZwokRYMTLpKgWg4A", "scope": "GOOGLE", "types": ["gas_station", "point_of_interest", "establishment"], "user_ratings_total": 187, "vicinity": "2430 FDR Dr, New York"}, {"geometry": {"location": {"lat": 40.7369157, "lng": -74.0379505}, "viewport": {"northeast": {"lat": 40.73825757989272, "lng": -74.03663607010726}, "southwest": {"lat": 40.73555792010728, "lng": -74.03933572989271}}}, "icon": "https://maps.gstatic.com/mapfiles/place_api/icons/gas_station-71.png", "id": "e316822a0977a7eb88c360f1c62511e5ceb3d503", "name": "Valero", "opening_hours": {}, "photos": [{"height": 3264, "html_attributions": ["<a href=\"https://maps.google.com/maps/contrib/118137499083693329568\">Pikachu Pika</a>"], "photo_reference": "CmRaAAAAXlSxr-zSCgabVGW0ALRyABlGerlxXplcASp4lc6PyOj7bTUHX1_6Z7uv4OV-K2tKI7TPccOqi1-qX73FtXA2yFWbXjVD_Fjn8kV3biAMi21z4LX6uSQUGRnNB7UcATyXEhA8JuQLBCk0z_O-nALUTNisGhTBJKqGgjrENFpLgxKpgdC1FB5_tw", "width": 1836}], "place_id": "ChIJuTudvVtXwokRHXWaHfmWaBc", "plus_code": {"compound_code": "PXP6+QR Hoboken, New Jersey", "global_code": "87G7PXP6+QR"}, "rating": 3.3, "reference": "ChIJuTudvVtXwokRHXWaHfmWaBc", "scope": "GOOGLE", "types": ["gas_station", "point_of_interest", "establishment"], "user_ratings_total": 43, "vicinity": "425 Newark St, Hoboken"}, {"geometry": {"location": {"lat": 40.7299912, "lng": -74.0418554}, "viewport": {"northeast": {"lat": 40.73143287989271, "lng": -74.04027067010728}, "southwest": {"lat": 40.72873322010727, "lng": -74.04297032989271}}}, "icon": "https://maps.gstatic.com/mapfiles/place_api/icons/gas_station-71.png", "id": "efc3ec4129cb06df189372a30acc28ba44cae5de", "name": "Gulf Gas Station", "opening_hours": {}, "photos": [{"height": 2988, "html_attributions": ["<a href=\"https://maps.google.com/maps/contrib/101151931225978101832\">TAMBA Edouard</a>"], "photo_reference": "CmRaAAAAi4i9CZOQuqMiH1zGNmjhdqRdDkp9Pcq-xLEQvdcjjrFG2I0FTs1nmOvoIgHcHsS9xM7-A7-6mT91OL50Fr4z4U6Yjg1XRRcb-32BeffLlWsJ0MzDkYOUKgV6VLM3y-xTEhBvgV5tJjC5xaUSgpB40RIQGhQR_A7vvriaHQv0XUtfrPmEqfjHAQ", "width": 5312}], "place_id": "ChIJ-Xqk7U5XwokRNscxEbytbZU", "plus_code": {"compound_code": "PXH5+X7 Jersey City, New Jersey", "global_code": "87G7PXH5+X7"}, "rating": 3.6, "reference": "ChIJ-Xqk7U5XwokRNscxEbytbZU", "scope": "GOOGLE", "types": ["gas_station", "point_of_interest", "establishment"], "user_ratings_total": 76, "vicinity": "183 12th St, Jersey City"}, {"geometry": {"location": {"lat": 40.731554, "lng": -74.041625}, "viewport": {"northeast": {"lat": 40.73294017989272, "lng": -74.04003612010727}, "southwest": {"lat": 40.73024052010728, "lng": -74.04273577989272}}}, "icon": "https://maps.gstatic.com/mapfiles/place_api/icons/gas_station-71.png", "id": "6a7eb5fe0d28afc6ec8eec2780bf2d9cf4093474", "name": "Valero / 7-Eleven", "opening_hours": {"open_now": true}, "photos": [{"height": 380, "html_attributions": ["<a href=\"https://maps.google.com/maps/contrib/111094893716607468650\">A Google User</a>"], "photo_reference": "CmRaAAAA7E1saWy3m_AaHRhHOw1Quu6OHjLL1Zhot8tavfBr6rkAGpFtP9KaH6cZRk-NT2AHGl9ulOHOk-2OAMFjGcppbRv_chf4Bir258dnjXW9mA3V5KmN-Jo8gzsZ7U0dSu_SEhDTCQUwZ3LXfI68H7nBgn8tGhR5yl7zqMSIJg9MiLfDv41JJ84giw", "width": 540}], "place_id": "ChIJ6eqTYr1ZwokRAgcaArngcOg", "plus_code": {"compound_code": "PXJ5+J9 Jersey City, New Jersey", "global_code": "87G7PXJ5+J9"}, "rating": 2.7, "reference": "ChIJ6eqTYr1ZwokRAgcaArngcOg", "scope": "GOOGLE", "types": ["gas_station", "convenience_store", "food", "point_of_interest", "store", "establishment"], "user_ratings_total": 10, "vicinity": "193 14th St, Jersey City"}, {"geometry": {"location": {"lat": 40.7300848, "lng": -74.0425805}, "viewport": {"northeast": {"lat": 40.73138442989273, "lng": -74.04123677010728}, "southwest": {"lat": 40.72868477010729, "lng": -74.04393642989272}}}, "icon": "https://maps.gstatic.com/mapfiles/place_api/icons/gas_station-71.png", "id": "0e1cc43d2dceaf44cc900a4e418a6723d3a4e965", "name": "Shell", "opening_hours": {"open_now": true}, "photos": [{"height": 2268, "html_attributions": ["<a href=\"https://maps.google.com/maps/contrib/107821815236197059478\">sinan erel</a>"], "photo_reference": "CmRaAAAAgmod7sk7RHwfCBUYtFbIf3hNgGMNg1CeaBixFwqKZ_9c021m9L4wnezdSXiy-nj-_A2QYA45upif83jsdiErp9OOHg-T89nsKSSvSXycWnQp02kdu3a6xRj4odseukgrEhDRUZJz6yvuFJ953SK0Et3IGhQx9JrS5LWIFFP4HhVGv4FU5AajjQ", "width": 4032}], "place_id": "ChIJ3QRH7E5XwokRRjPJy_Fm8LI", "plus_code": {"compound_code": "PXJ4+2X Jersey City, New Jersey", "global_code": "87G7PXJ4+2X"}, "price_level": 2, "rating": 4, "reference": "ChIJ3QRH7E5XwokRRjPJy_Fm8LI", "scope": "GOOGLE", "types": ["gas_station", "atm", "convenience_store", "finance", "food", "point_of_interest", "store", "establishment"], "user_ratings_total": 79, "vicinity": "197 12th St, Jersey City"}, {"geometry": {"location": {"lat": 40.694496, "lng": -73.9834546}, "viewport": {"northeast": {"lat": 40.69586997989272, "lng": -73.98211067010728}, "southwest": {"lat": 40.69317032010728, "lng": -73.98481032989272}}}, "icon": "https://maps.gstatic.com/mapfiles/place_api/icons/gas_station-71.png", "id": "d5aac41a323606b39d0e1f3c9bcb5477367c7c27", "name": "KINGS FLATBUSH EXTENSION C-STORE", "opening_hours": {"open_now": true}, "photos": [{"height": 1080, "html_attributions": ["<a href=\"https://maps.google.com/maps/contrib/101414482886684900509\">Ibrahim AlZabin</a>"], "photo_reference": "CmRaAAAAXMVaES53bwtQu5_vLZVXF-aU5fzQYsdYJFXYwnY3G03UlFWaVmxqWVkmS6mm_wxwhPsl0S-4H4zNiDR636l11gcDL7l6e_jDMMvW0YnwvILpROsVsFOKvZpSMuTmJ7jzEhArRrMT8FfDtNBjUVfOVMmfGhQpjdwkzbXLCcEyUvbXLCGJRPoYbQ", "width": 1920}], "place_id": "ChIJIUpstkpawokR59Btl22EQNQ", "plus_code": {"compound_code": "M2V8+QJ Brooklyn, New York", "global_code": "87G8M2V8+QJ"}, "rating": 3.3, "reference": "ChIJIUpstkpawokR59Btl22EQNQ", "scope": "GOOGLE", "types": ["gas_station", "point_of_interest", "establishment"], "user_ratings_total": 291, "vicinity": "185 Flatbush Ave Ext, Brooklyn"}, {"geometry": {"location": {"lat": 40.73219040000001, "lng": -74.0440945}, "viewport": {"northeast": {"lat": 40.73356622989272, "lng": -74.04259697010728}, "southwest": {"lat": 40.73086657010727, "lng": -74.04529662989272}}}, "icon": "https://maps.gstatic.com/mapfiles/place_api/icons/gas_station-71.png", "id": "f71057b948351592e35910811fed0ed5ade56524", "name": "Sunoco Gas Station", "opening_hours": {"open_now": true}, "photos": [{"height": 4032, "html_attributions": ["<a href=\"https://maps.google.com/maps/contrib/100146876602562933271\">mtandiz</a>"], "photo_reference": "CmRaAAAASplPQ_OW15cdm9UCF0VebZE01mnlAnZNUHP1KpuZG9IBp7IubWFelfxToVXDHzKdZIW9oFTMf6lzPwxsa7NoqOjgjK7ctG64BYoOHEDSdQi7Be166Xp7Ew2cODyyMH1YEhAWp-GQ5__L8mcLUwpk8933GhR_3TnFCxCZQ-dKn8lZ1BRLMlJzgQ", "width": 3024}], "place_id": "ChIJhVmyL1BXwokRj9fJJHBjiHk", "plus_code": {"compound_code": "PXJ4+V9 Jersey City, New Jersey", "global_code": "87G7PXJ4+V9"}, "price_level": 2, "rating": 2.9, "reference": "ChIJhVmyL1BXwokRj9fJJHBjiHk", "scope": "GOOGLE", "types": ["gas_station", "convenience_store", "food", "point_of_interest", "store", "establishment"], "user_ratings_total": 8, "vicinity": "Jersey Ave &, 14th St, Jersey City"}, {"geometry": {"location": {"lat": 40.7559733, "lng": -73.99788880000001}, "viewport": {"northeast": {"lat": 40.75724737989272, "lng": -73.99664937010728}, "southwest": {"lat": 40.75454772010728, "lng": -73.99934902989273}}}, "icon": "https://maps.gstatic.com/mapfiles/place_api/icons/gas_station-71.png", "id": "1fa74e2044aa561b1df4ecef8d331b76c1abfe4c", "name": "BP", "opening_hours": {"open_now": true}, "photos": [{"height": 1440, "html_attributions": ["<a href=\"https://maps.google.com/maps/contrib/113650357208073405047\">Joshua Bernstein</a>"], "photo_reference": "CmRaAAAA-f0fNPe4vjVpO00jlvKulut1EGhtVDpiHTfqVr0Msx8lCikjlA5hZkRAOKuCE8UNDwYg9w8Xwn8fb_AHYaSq6kqJgtGi8SC8M5rabspsvAMhO49VIBpDoJuvaYcKCReoEhCoAAzDCeMAp8lNR4JRLsO7GhRtOkk3j8-RuNMCfvt32GVc7CWVbw", "width": 2560}], "place_id": "ChIJQ8aGILNZwokRrd9xqr2bUd0", "plus_code": {"compound_code": "Q242+9R New York", "global_code": "87G8Q242+9R"}, "rating": 3.5, "reference": "ChIJQ8aGILNZwokRrd9xqr2bUd0", "scope": "GOOGLE", "types": ["gas_station", "atm", "convenience_store", "finance", "food", "point_of_interest", "store", "establishment"], "user_ratings_total": 80, "vicinity": "466 10th Ave, New York"}, {"geometry": {"location": {"lat": 40.7335091, "lng": -73.952507}, "viewport": {"northeast": {"lat": 40.73482422989272, "lng": -73.95103582010728}, "southwest": {"lat": 40.73212457010727, "lng": -73.95373547989271}}}, "icon": "https://maps.gstatic.com/mapfiles/place_api/icons/gas_station-71.png", "id": "39db0781f3c9227b1f18aa92ab7a24094b01d3f0", "name": "Gulf MJB Service Station", "opening_hours": {"open_now": true}, "photos": [{"height": 4032, "html_attributions": ["<a href=\"https://maps.google.com/maps/contrib/115074077063757267641\">A Google User</a>"], "photo_reference": "CmRaAAAADeI35k5FC8mN6Q6ujsFlgWjmQehtIn3-OX9YXydzUSVEMP2zfv7IcoT-zu35l8cKinvfLHsNm34G0UHDTxH1X0gZH8dqblj1Ddf2KFomlTniQsFG-3G7JkzU6d4LcanIEhBIShWoN6jFzeOcP7aZ8h5JGhSyuXa-yNOI-meXbrcDm4pFp8sZBA", "width": 3024}], "place_id": "ChIJa2-tIDlZwokRusXNzSxfYzQ", "plus_code": {"compound_code": "P2MW+CX Brooklyn, New York", "global_code": "87G8P2MW+CX"}, "rating": 3.7, "reference": "ChIJa2-tIDlZwokRusXNzSxfYzQ", "scope": "GOOGLE", "types": ["gas_station", "point_of_interest", "establishment"], "user_ratings_total": 68, "vicinity": "321 McGuinness Blvd #1817, Brooklyn"}, {"geometry": {"location": {"lat": 40.717032, "lng": -74.0552232}, "viewport": {"northeast": {"lat": 40.71837972989272, "lng": -74.05389437010729}, "southwest": {"lat": 40.71568007010728, "lng": -74.05659402989272}}}, "icon": "https://maps.gstatic.com/mapfiles/place_api/icons/gas_station-71.png", "id": "6504e588c71c6d0865bb9c68e61ed1d12967acdf", "name": "Sunoco Gas Station", "opening_hours": {"open_now": true}, "photos": [{"height": 280, "html_attributions": ["<a href=\"https://maps.google.com/maps/contrib/116465964516699627019\">Sunoco Gas Station</a>"], "photo_reference": "CmRaAAAAJCMcrEqwBpT9JbBAzyYXlVfyU1weqG8_yNSMfnNekb_RQHFFBRv-9md7-khAMgCFODJ1a-hjvgnb9RF2DQT7EzjtPKPC1bxvj4sJ7pr8fIytC4tqcm86BCPUADJl4ED5EhB7U9NJ80YUxWsD05ES0d9bGhSFzf7py1h39N-2xaOqKAoO0EkWsQ", "width": 280}], "place_id": "ChIJcSyyPchQwokR4BH9v6AAqA0", "plus_code": {"compound_code": "PW8V+RW Jersey City, New Jersey", "global_code": "87G7PW8V+RW"}, "price_level": 2, "rating": 1.8, "reference": "ChIJcSyyPchQwokR4BH9v6AAqA0", "scope": "GOOGLE", "types": ["gas_station", "convenience_store", "car_repair", "food", "point_of_interest", "store", "establishment"], "user_ratings_total": 28, "vicinity": "465 Grand St, Jersey City"}, {"geometry": {"location": {"lat": 40.7286351, "lng": -73.9502249}, "viewport": {"northeast": {"lat": 40.72993802989272, "lng": -73.94890897010727}, "southwest": {"lat": 40.72723837010728, "lng": -73.95160862989272}}}, "icon": "https://maps.gstatic.com/mapfiles/place_api/icons/gas_station-71.png", "id": "660a428b2761bd1a22fa662a727750d73f08aa1d", "name": "Gulf Gas Station", "opening_hours": {}, "photos": [{"height": 4032, "html_attributions": ["<a href=\"https://maps.google.com/maps/contrib/115728342827887775821\">A Google User</a>"], "photo_reference": "CmRaAAAA7KXJwe_E37wPMwbIEYcYj8nSBHiOftM7cfXgWzUrF6DrqnwQ65JVSsodAsgj5NpkWiHi75ePiNgszwBTQk1nuZG9gM_JSEYD9hPhW7Q5NTw3CGAmbnxMxGXePVbPAXrYEhCeNWg_rhG-ik8mR3qqaJesGhRKC66d7wLPuAttSo4zS9C4SXzNng", "width": 3024}], "place_id": "ChIJlwGNpkdZwokRXqTPhVcgELA", "plus_code": {"compound_code": "P2HX+FW Brooklyn, New York", "global_code": "87G8P2HX+FW"}, "rating": 3.9, "reference": "ChIJlwGNpkdZwokRXqTPhVcgELA", "scope": "GOOGLE", "types": ["gas_station", "point_of_interest", "establishment"], "user_ratings_total": 34, "vicinity": "176 McGuinness Blvd, Brooklyn"}, {"geometry": {"location": {"lat": 40.730693, "lng": -73.948087}, "viewport": {"northeast": {"lat": 40.73209237989271, "lng": -73.94676442010727}, "southwest": {"lat": 40.72939272010727, "lng": -73.94946407989272}}}, "icon": "https://maps.gstatic.com/mapfiles/place_api/icons/gas_station-71.png", "id": "3a1a97eb52fa70e95ef688d97637ddfaaa2a3103", "name": "Gas Station", "opening_hours": {}, "place_id": "ChIJTweWNe1ZwokR1NxQ_wFvQv4", "plus_code": {"compound_code": "P3J2+7Q Brooklyn, New York", "global_code": "87G8P3J2+7Q"}, "rating": 4.6, "reference": "ChIJTweWNe1ZwokR1NxQ_wFvQv4", "scope": "GOOGLE", "types": ["gas_station", "point_of_interest", "establishment"], "user_ratings_total": 17, "vicinity": "Brooklyn"}, {"geometry": {"location": {"lat": 40.6809292, "lng": -74.0033468}, "viewport": {"northeast": {"lat": 40.68225722989272, "lng": -74.00191777010728}, "southwest": {"lat": 40.67955757010728, "lng": -74.00461742989273}}}, "icon": "https://maps.gstatic.com/mapfiles/place_api/icons/gas_station-71.png", "id": "4b9f8d193c186b582f99d06f28106933d0ea2621", "name": "Gulf Gas Station", "opening_hours": {"open_now": false}, "photos": [{"height": 1836, "html_attributions": ["<a href=\"https://maps.google.com/maps/contrib/115721145224077578813\">Ruben De La Rosa</a>"], "photo_reference": "CmRaAAAAQhdhEn_uBHwYYi_6FCwDJL2g-H0REphuzG248xaBO5_AmxDUJ_0Va9zd2ZDFrbDC4SKFZQjMlIic3OEOzxNLIqLbKBLIJGicFFTo2zv6zDD9RClAp7KZv9emXSxkRV8DEhARqErUhTr1EpJYDV_o0_NLGhSii_UL4zJ256QeZIMRVR9Kg2xMYw", "width": 3264}], "place_id": "ChIJH8CiCF9awokRR47DNDE5zpw", "plus_code": {"compound_code": "MXJW+9M Brooklyn, New York", "global_code": "87G7MXJW+9M"}, "rating": 4, "reference": "ChIJH8CiCF9awokRR47DNDE5zpw", "scope": "GOOGLE", "types": ["gas_station", "point_of_interest", "establishment"], "user_ratings_total": 44, "vicinity": "640 Hicks St, Brooklyn"}, {"geometry": {"location": {"lat": 40.71061539999999, "lng": -73.9489759}, "viewport": {"northeast": {"lat": 40.71196372989273, "lng": -73.94764367010727}, "southwest": {"lat": 40.70926407010728, "lng": -73.95034332989272}}}, "icon": "https://maps.gstatic.com/mapfiles/place_api/icons/gas_station-71.png", "id": "6f5e1da56e22aab3ac84e55ac91e0f55aa823114", "name": "CONOCO 24-Hr. Full-Service", "opening_hours": {"open_now": true}, "photos": [{"height": 3072, "html_attributions": ["<a href=\"https://maps.google.com/maps/contrib/103203033458719447179\">Marcos Rodriguez</a>"], "photo_reference": "CmRaAAAA3rzffjr-ZrrLvsJYqEN2TyC9nE1zlTWZrfi5ZKPVWpo0ySCRkZrazgxGumDsY8mZ6dW3DCWr0f3M3A9YaChxMb-R_2RrnC5bx2slSES1DVdy__ISGQmGrrygCC5JVAoPEhCJMUXJyHXiqQFknHNg4zBDGhRqkP4_-vSn_-WXia_6ceJb4GgXpw", "width": 4096}], "place_id": "ChIJRfrvoOJbwokRSTj896Y7y0Q", "plus_code": {"compound_code": "P362+6C Brooklyn, New York", "global_code": "87G8P362+6C"}, "rating": 4, "reference": "ChIJRfrvoOJbwokRSTj896Y7y0Q", "scope": "GOOGLE", "types": ["gas_station", "point_of_interest", "establishment"], "user_ratings_total": 100, "vicinity": "451 Lorimer St, Brooklyn"}, {"geometry": {"location": {"lat": 40.6941619, "lng": -73.9613537}, "viewport": {"northeast": {"lat": 40.69543252989272, "lng": -73.95989127010729}, "southwest": {"lat": 40.69273287010728, "lng": -73.96259092989273}}}, "icon": "https://maps.gstatic.com/mapfiles/place_api/icons/gas_station-71.png", "id": "e36cec8258ea364d2214b33008372c1fdb8acf26", "name": "Citgo", "opening_hours": {"open_now": true}, "photos": [{"height": 4032, "html_attributions": ["<a href=\"https://maps.google.com/maps/contrib/115728342827887775821\">A Google User</a>"], "photo_reference": "CmRaAAAAfsxLD6AZV2PbSFnwpfDCXYFzNPXbw9rMZMzukN39zPe3-SXedeCFJbn3o2NpQnIGddQggDDEIz7LlnDsR_QdQ2NNIP9uWwoshUkuR07j9VqDHtbf9HflKSfYsStpTfqBEhCvDL34Q5Dml0XA77ORpCqwGhRM8DiGj32e3-QVqu6Ic21G_ZZaZQ", "width": 3024}], "place_id": "ChIJBTwVQMBbwokReAI3R7BJWqQ", "plus_code": {"compound_code": "M2VQ+MF Brooklyn, New York", "global_code": "87G8M2VQ+MF"}, "rating": 3.8, "reference": "ChIJBTwVQMBbwokReAI3R7BJWqQ", "scope": "GOOGLE", "types": ["gas_station", "point_of_interest", "establishment"], "user_ratings_total": 70, "vicinity": "569 Myrtle Ave, Brooklyn"}, {"geometry": {"location": {"lat": 40.7205874, "lng": -73.9442474}, "viewport": {"northeast": {"lat": 40.72187902989272, "lng": -73.94299512010728}, "southwest": {"lat": 40.71917937010727, "lng": -73.94569477989272}}}, "icon": "https://maps.gstatic.com/mapfiles/place_api/icons/gas_station-71.png", "id": "13c4dc05941d03514dab2d2bc8f0b6ec71dbce63", "name": "Sunoco Gas Station", "opening_hours": {"open_now": true}, "photos": [{"height": 4032, "html_attributions": ["<a href=\"https://maps.google.com/maps/contrib/100146876602562933271\">mtandiz</a>"], "photo_reference": "CmRaAAAAS02smUoN4Jx4-Qyr2kgMFc3fXyhQrc5hemlYQPguwXq5_BDPzeOFdbIzWk4LQIaSHoW1sRm6Tc76J3C-L8E5aFZ282myN468Ix_bCYA3cT2t2ntuK9SJAYamVA21H2pWEhBUwj0ZYgXcdFn_9sZbJc0MGhQ3yiGlnnq51udUaKWW6gajRM_C9Q", "width": 3024}], "place_id": "ChIJwUK7MU5ZwokRWKkfF8a5Hws", "plus_code": {"compound_code": "P3C4+68 Brooklyn, New York", "global_code": "87G8P3C4+68"}, "price_level": 2, "rating": 3.4, "reference": "ChIJwUK7MU5ZwokRWKkfF8a5Hws", "scope": "GOOGLE", "types": ["gas_station", "convenience_store", "food", "point_of_interest", "store", "establishment"], "user_ratings_total": 48, "vicinity": "497 Meeker Ave, Brooklyn"}, {"geometry": {"location": {"lat": 40.6770266, "lng": -74.0024497}, "viewport": {"northeast": {"lat": 40.67838117989271, "lng": -74.00112657010727}, "southwest": {"lat": 40.67568152010727, "lng": -74.00382622989272}}}, "icon": "https://maps.gstatic.com/mapfiles/place_api/icons/gas_station-71.png", "id": "53b155205785ab32432a63d72fd98775bc6c8325", "name": "Gulf Gas Station", "opening_hours": {"open_now": true}, "photos": [{"height": 3024, "html_attributions": ["<a href=\"https://maps.google.com/maps/contrib/103625100604768819049\">Mei Yan</a>"], "photo_reference": "CmRaAAAAgkr38Ff03-W1IBDwBHFM2E7vwgNp3KHYC66BOLRygjqs0is61Py1uX8kyiOT6wU37Xu_pzWzwtiD7v8gF5glyP82MudLDcjiDvuvbcC0KU1odLW42DIw4Jndt1tVWBYnEhA_0zW6OhSLXdBsA-IjChwpGhQcSARB8r-_ybf6_nXiyC8b3vyhog", "width": 4032}], "place_id": "ChIJH04wuvVawokRWNcEBRGy96w", "plus_code": {"compound_code": "MXGX+R2 Brooklyn, New York", "global_code": "87G7MXGX+R2"}, "rating": 3.5, "reference": "ChIJH04wuvVawokRWNcEBRGy96w", "scope": "GOOGLE", "types": ["gas_station", "point_of_interest", "establishment"], "user_ratings_total": 85, "vicinity": "260 Hamilton Ave, Brooklyn"}, {"geometry": {"location": {"lat": 40.716653, "lng": -74.0641046}, "viewport": {"northeast": {"lat": 40.71792342989273, "lng": -74.06272057010727}, "southwest": {"lat": 40.71522377010728, "lng": -74.06542022989271}}}, "icon": "https://maps.gstatic.com/mapfiles/place_api/icons/gas_station-71.png", "id": "477d7aa1dfdf9286c64c4cb760b1ff03d39a80dc", "name": "Gulf Gas Station", "opening_hours": {}, "photos": [{"height": 2988, "html_attributions": ["<a href=\"https://maps.google.com/maps/contrib/115684301704798234760\">vito pecoraro</a>"], "photo_reference": "CmRaAAAABY161a-lzCluquQp9zjRNMxnJ4M1PDE-msw3xON19Pgv4ObNCB0_cwoZMUmKwYjNTqxEIJmYRYGbua-9SOC_F2ZAmOGOdXh4iRcrKzF6dJlXQRZzo9Lu0I0u9FrTdEtDEhDnpcBgfSM-rjjlUF98Ju0oGhTu1zngLBnJBjeJ2LNJqNYzUe2haA", "width": 5312}], "place_id": "ChIJuUfeXMVQwokRgYVY5yrNx20", "plus_code": {"compound_code": "PW8P+M9 Jersey City, New Jersey", "global_code": "87G7PW8P+M9"}, "rating": 3.7, "reference": "ChIJuUfeXMVQwokRgYVY5yrNx20", "scope": "GOOGLE", "types": ["gas_station", "car_repair", "point_of_interest", "establishment"], "user_ratings_total": 41, "vicinity": "650 Grand St, Jersey City"}, {"geometry": {"location": {"lat": 40.7152029, "lng": -74.0670057}, "viewport": {"northeast": {"lat": 40.71650577989272, "lng": -74.06566887010727}, "southwest": {"lat": 40.71380612010728, "lng": -74.06836852989272}}}, "icon": "https://maps.gstatic.com/mapfiles/place_api/icons/gas_station-71.png", "id": "c54d77d2d68635133f439f6d66e3809c7d2b9472", "name": "Sunoco Gas Station", "opening_hours": {"open_now": true}, "photos": [{"height": 2340, "html_attributions": ["<a href=\"https://maps.google.com/maps/contrib/112096651651883245976\">Bryan Welker</a>"], "photo_reference": "CmRaAAAAUtRzjgtA7PjwCpQJYyFYCJz30xJhDc_Ka2fSPbdHoLFP24uIIgdVdObwpjhvFdY30xpma0Z1H2iv4aRjkIWcODuEih1R7_V4wpEWHu2q4dUG9A-dQMCAkRlxjpSx8gFQEhCMD3wlvZCT9SBTy4L7-YhpGhRAhi47SB3pflcWmtxZNn_oT3FH1g", "width": 4160}], "place_id": "ChIJQwEJ4dpQwokR81r18bMQK00", "plus_code": {"compound_code": "PW8M+35 Jersey City, New Jersey", "global_code": "87G7PW8M+35"}, "price_level": 2, "rating": 3.6, "reference": "ChIJQwEJ4dpQwokR81r18bMQK00", "scope": "GOOGLE", "types": ["gas_station", "point_of_interest", "establishment"], "user_ratings_total": 40, "vicinity": "470 Communipaw Ave, Jersey City"}], "status": "OK"}