{"html_attributions": [], "next_page_token": "CrQCLAEAAI-TjniED4F-32xXt7Dhr6S9bWH3n4skLYgalhgTRGwjzzOg84qqurbduyL5CWUrd8zJSq7N0sE6RQXfEuedab3BSNgUyC_6h-kclex5LNrddLXDN8hC8Lgn57La_-TLw1uNXUVhuRj_gsQ_gdUpmLcle9f5G4jLHteF_sk8AWlTkr-IfVyBj7alnQ1o1iQ1c4OLMfTWO97ZdmBXY2ySM1-xt2GEHukS0Bd5WWO06QhdjQ1anks3qPiTuMsjwBDq3X5LoLwclOg4upCO3-QjtIG43yG9N6xNYkvfdpb5bPpMH9tYaLztETZ755Hn2Dnzgyj-X7EsNtXqj1W2byHeF22abLHAk6fhzAgzGrGa7gyLXGPeSXPmrwOS6aoPSp4D730LBbe-G-MxOPzX2yd9a10SEKyz6QQ2fh2NjUNrThdx3TkaFHQy7MLaC-jc-cOae3_-PYOiT9ZW", "results": [{"business_status": "OPERATIONAL", "geometry": {"location": {"lat": 40.7956933, "lng": -73.9737653}, "viewport": {"northeast": {"lat": 40.79696887989272, "lng": -73.97247017010729}, "southwest": {"lat": 40.79426922010727, "lng": -73.97516982989274}}}, "icon": "https://maps.gstatic.com/mapfiles/place_api/icons/gas_station-71.png", "id": "0977ee617b988a4708111e98054571b4e14d4f36", "name": "315 W 96 SERVICE CENTER", "opening_hours": {"open_now": true}, "photos": [{"height": 3024, "html_attributions": ["<a href=\"https://maps.google.com/maps/contrib/105646658147124911136\">Arthur Stoute</a>"], "photo_reference": "CmRaAAAAnDO51VJDK7RBwWla-3VUUgb-ZJPxnVG58TwcRyjA2tGUJp94tsxA2-fpFwy_8TpSd-NaNb0DFMiw8KS96a8DvP4_ErcasHi_nQRat02Mw56OLyQlcxqFJVlAVT518s7YEhBWWwAs9uC4e-2AGZfL4QTdGhS6jQrSjfnSaKIM-Kra9v68CXqJ5w", "width": 4032}], "place_id": "ChIJ371tVij2wokRWEBLYby98zo", "plus_code": {"compound_code": "Q2WG+7F New York", "global_code": "87G8Q2WG+7F"}, "rating": 3.5, "reference": "ChIJ371tVij2wokRWEBLYby98zo", "scope": "GOOGLE", "types": ["gas_station", "point_of_interest", "establishment"], "user_ratings_total": 165, "vicinity": "303 W 96th St, New York"}, {"business_status": "OPERATIONAL", "geometry": {"location": {"lat": 40.800266, "lng": -73.99448790000001}, "viewport": {"northeast": {"lat": 40.80157977989272, "lng": -73.99300277010728}, "southwest": {"lat": 40.79888012010728, "lng": -73.99570242989273}}}, "icon": "https://maps.gstatic.com/mapfiles/place_api/icons/gas_station-71.png", "id": "4ad72b7d7a9d711f57f0f0f6ebf12ba8afc8aeb2", "name": "NORTH BERGEN CONVENIENCE", "opening_hours": {"open_now": true}, "photos": [{"height": 1536, "html_attributions": ["<a href=\"https://maps.google.com/maps/contrib/111206718654677993905\">Raul Avila</a>"], "photo_reference": "CmRaAAAADQAs0Qm7AF_vBJFtBpw8pZsh2oEhy89itAOSWW9nNEhz3d-AxvRRHzjHhDIF9sJUmXNuPEiiWPkVc0Jbv1dzsb2MOCT71nk_lWmS4dbgUrkBkzfw3mfcFK6r-VVANQwyEhDsNJ1a_eQA2vn63Yumf4TvGhS3tJx0wmnFD3aD5ZfPlWMnS3ZATA", "width": 2048}], "place_id": "ChIJbUUeD3gIZkARtVz3GgRsMg0", "plus_code": {"compound_code": "R224+46 North Bergen, New Jersey", "global_code": "87G8R224+46"}, "rating": 3.8, "reference": "ChIJbUUeD3gIZkARtVz3GgRsMg0", "scope": "GOOGLE", "types": ["gas_station", "point_of_interest", "establishment"], "user_ratings_total": 48, "vicinity": "8401 River Rd, North Bergen"}, {"business_status": "OPERATIONAL", "geometry": {"location": {"lat": 40.78929400000001, "lng": -73.9478855}, "viewport": {"northeast": {"lat": 40.79080407989272, "lng": -73.94670422010728}, "southwest": {"lat": 40.78810442010727, "lng": -73.94940387989273}}}, "icon": "https://maps.gstatic.com/mapfiles/place_api/icons/gas_station-71.png", "id": "1f3c1a702d5fe4a4674f92d686d7471c63c9409c", "name": "Shell", "opening_hours": {"open_now": true}, "photos": [{"height": 3024, "html_attributions": ["<a href=\"https://maps.google.com/maps/contrib/107068838566965446335\">Moe Friedman</a>"], "photo_reference": "CmRaAAAADa9XgNqMV6HN5zq9z32AqswWDpQ47_k-UQIWmC6RKKKPVX6FT_vsdfpuiS0yIvZYlMK3d7fsLs2hVogUCYKTD_q-MuqQpD-O33RZDcOgm6P8GTiNMOn9mzAkGyGWN1yBEhBBmbNdvOHcKmML7pzhxDd8GhQFLXISPU2l9icpD5nL3KWN-VMQdw", "width": 4032}], "place_id": "ChIJQcGj_qdYwokRtce4riQA7ec", "plus_code": {"compound_code": "Q3Q2+PR New York", "global_code": "87G8Q3Q2+PR"}, "price_level": 2, "rating": 3.7, "reference": "ChIJQcGj_qdYwokRtce4riQA7ec", "scope": "GOOGLE", "types": ["gas_station", "convenience_store", "food", "point_of_interest", "store", "establishment"], "user_ratings_total": 74, "vicinity": "1599 Lexington Ave, New York"}, {"business_status": "OPERATIONAL", "geometry": {"location": {"lat": 40.7830687, "lng": -73.9451863}, "viewport": {"northeast": {"lat": 40.78448007989272, "lng": -73.94367887010729}, "southwest": {"lat": 40.78178042010727, "lng": -73.94637852989274}}}, "icon": "https://maps.gstatic.com/mapfiles/place_api/icons/gas_station-71.png", "id": "6c03cb748d5b30d3f6e4e76d0f783e000b48ae35", "name": "Shell", "opening_hours": {"open_now": true}, "photos": [{"height": 4032, "html_attributions": ["<a href=\"https://maps.google.com/maps/contrib/109724224782175428791\">A Google User</a>"], "photo_reference": "CmRaAAAAlTTJnx8npgfYlt4qJPst1NsEkUpacTWhXIQgb1mHnqMxQgwtpgtBC5Jcwd7sTwjOmfud99uEpj5c4wI6nZq1jYvo2CSMv2vzBIuSJYz3BnSXXMFZilOMeVHcSuJ7bEnPEhDLS3ZenL4vN5gTVzmtdMzIGhQKC_Qyl7mNO1_JSOIOUgsk_bSEEA", "width": 3024}], "place_id": "ChIJq8fzIa9YwokROklzwk3TIp8", "plus_code": {"compound_code": "Q3M3+6W New York", "global_code": "87G8Q3M3+6W"}, "price_level": 2, "rating": 3.6, "reference": "ChIJq8fzIa9YwokROklzwk3TIp8", "scope": "GOOGLE", "types": ["gas_station", "atm", "convenience_store", "finance", "food", "point_of_interest", "store", "establishment"], "user_ratings_total": 289, "vicinity": "1855 1st Avenue, New York"}, {"business_status": "OPERATIONAL", "geometry": {"location": {"lat": 40.7663124, "lng": -73.9940142}, "viewport": {"northeast": {"lat": 40.76771072989273, "lng": -73.99276852010728}, "southwest": {"lat": 40.76501107010728, "lng": -73.99546817989271}}}, "icon": "https://maps.gstatic.com/mapfiles/place_api/icons/gas_station-71.png", "id": "3f54b6d8d8098095a09cf768f881167194271bf0", "name": "BISMA MOBIL", "opening_hours": {"open_now": true}, "photos": [{"height": 1830, "html_attributions": ["<a href=\"https://maps.google.com/maps/contrib/105170431124683218627\">Marc Gonzalez</a>"], "photo_reference": "CmRaAAAAejh_Chz6NN2AkxWgHNsdcOIU_4axsdHqfBNOX2ws4dFGRA1jNZ-Z7ooqQ_Jc9GuYrmTZ07P9jwcjzXWhJ0cm5G4klqrKm0gdeyA2UCJjtweTWpvr2mq3wTXUYMMTl_bWEhDb-Ci8uU5NkdaBXpTJNh8vGhQdJ9odaYsHf0iFj_K0TkcfrkzfTQ", "width": 2060}], "place_id": "ChIJH9qNB1BYwokRYaZyDVGQiKk", "plus_code": {"compound_code": "Q284+G9 New York", "global_code": "87G8Q284+G9"}, "rating": 3, "reference": "ChIJH9qNB1BYwokRYaZyDVGQiKk", "scope": "GOOGLE", "types": ["gas_station", "point_of_interest", "establishment"], "user_ratings_total": 364, "vicinity": "718 11th Ave, New York"}, {"business_status": "OPERATIONAL", "geometry": {"location": {"lat": 40.789592, "lng": -73.94039459999999}, "viewport": {"northeast": {"lat": 40.79093232989272, "lng": -73.93893512010727}, "southwest": {"lat": 40.78823267010728, "lng": -73.94163477989271}}}, "icon": "https://maps.gstatic.com/mapfiles/place_api/icons/gas_station-71.png", "id": "c67b48371347ebc7ea1054e4f39d0e98b7691e9e", "name": "EASTSIDES AUTO SERVICE", "opening_hours": {"open_now": true}, "photos": [{"height": 2268, "html_attributions": ["<a href=\"https://maps.google.com/maps/contrib/113647500004240593967\">Boaz Sedaghatfar</a>"], "photo_reference": "CmRaAAAAna8NKoxxT4oXaMVKYLrUUHaZPwf_hPd86nOh1YN9Lw5x8Fa36mkE3eFazsvmpWWzd3bsxkjvIKRK2QeRCI3oZRxIYQS-HQcdKV-uQggHgfJbUS3UHnSLnHHhYavzifOpEhCsOGs7RwCXLlppBLPMqSinGhSDTMEdleBVCje6ux_tDfvIF2WNCw", "width": 4032}], "place_id": "ChIJVzHWlAH2wokRMrPfz959gPM", "plus_code": {"compound_code": "Q3Q5+RR New York", "global_code": "87G8Q3Q5+RR"}, "rating": 4, "reference": "ChIJVzHWlAH2wokRMrPfz959gPM", "scope": "GOOGLE", "types": ["gas_station", "point_of_interest", "establishment"], "user_ratings_total": 85, "vicinity": "348 E 106th St, New York"}, {"business_status": "OPERATIONAL", "geometry": {"location": {"lat": 40.7860356, "lng": -74.0110064}, "viewport": {"northeast": {"lat": 40.78751172989272, "lng": -74.00976002010728}, "southwest": {"lat": 40.78481207010728, "lng": -74.01245967989273}}}, "icon": "https://maps.gstatic.com/mapfiles/place_api/icons/gas_station-71.png", "id": "d549ef36d6e0ec51f79cea4c100495a7861d27ae", "name": "RAMIREZ & SONS SERVICE STATION", "opening_hours": {"open_now": true}, "photos": [{"height": 3024, "html_attributions": ["<a href=\"https://maps.google.com/maps/contrib/117635884598597996727\">Solomon Bedi</a>"], "photo_reference": "CmRaAAAAsW1gv-SFYin_tU7K9tev6JC7IZBjC7Ch7gYmWdVsEJ6bFokC-cgw_hxeeV6napW7p7iVP-xBZ9wr0-cmkrpTRANxK5fLyRe-BNxvj6YwebNqMZSeqURenTKahDR9EzJiEhDl4x30yV2y8xwtmo3J7R7SGhSAvsenUMRA0kENNDYPDdohvverKw", "width": 4032}], "place_id": "ChIJXXjzyhNYwokR7F-Oo0RXl1o", "plus_code": {"compound_code": "QXPQ+CH West New York, New Jersey", "global_code": "87G7QXPQ+CH"}, "rating": 4.2, "reference": "ChIJXXjzyhNYwokR7F-Oo0RXl1o", "scope": "GOOGLE", "types": ["gas_station", "point_of_interest", "establishment"], "user_ratings_total": 185, "vicinity": "165 60th St, West New York"}, {"business_status": "OPERATIONAL", "geometry": {"location": {"lat": 40.8107179, "lng": -73.9542127}, "viewport": {"northeast": {"lat": 40.81208497989272, "lng": -73.95290572010728}, "southwest": {"lat": 40.80938532010728, "lng": -73.95560537989272}}}, "icon": "https://maps.gstatic.com/mapfiles/place_api/icons/gas_station-71.png", "id": "64545aca9174eacff943e3286c15cc48cf39297a", "name": "Shell", "opening_hours": {"open_now": true}, "photos": [{"height": 3024, "html_attributions": ["<a href=\"https://maps.google.com/maps/contrib/112462352094917846513\">\uc1a1\uba85\ud6c4</a>"], "photo_reference": "CmRaAAAAX0QHnHlxHjibWqYU0y4BsfVXyvkdrS9nX6KeB6yKVHdT9qHGjANlhX8vQ3eQzjc_PwyvzY48pRiCJ2ffZ2fdZqMOOBsDmzHZpGXOzLF2batXYosRzhJ_AI3jr3-JhAafEhA0LpgkcAeJxzhqbKbPq3F6GhQBKxLEaZhOAY8S97gByoR_cTafow", "width": 3024}], "place_id": "ChIJLXIWTWv2wokRSe_AxcBsbAc", "plus_code": {"compound_code": "R26W+78 New York", "global_code": "87G8R26W+78"}, "price_level": 2, "rating": 3.8, "reference": "ChIJLXIWTWv2wokRSe_AxcBsbAc", "scope": "GOOGLE", "types": ["gas_station", "point_of_interest", "establishment"], "user_ratings_total": 168, "vicinity": "117 Morningside Ave, New York"}, {"business_status": "OPERATIONAL", "geometry": {"location": {"lat": 40.8143672, "lng": -73.991241}, "viewport": {"northeast": {"lat": 40.81576872989272, "lng": -73.98997697010728}, "southwest": {"lat": 40.81306907010728, "lng": -73.99267662989273}}}, "icon": "https://maps.gstatic.com/mapfiles/place_api/icons/gas_station-71.png", "id": "592a07a5f4c5d495f46ed2215d58d61bcdec7367", "name": "Sunoco Gas Station", "opening_hours": {"open_now": true}, "photos": [{"height": 280, "html_attributions": ["<a href=\"https://maps.google.com/maps/contrib/109702306574353440554\">Sunoco</a>"], "photo_reference": "CmRaAAAAaA4lyIWvz61ZQ6GSvY9IvFX4ITII1L7XoeN_VTs3sYRjNdcOxQhHif5WkRFiMwBQcOTulI1p_d-8Uhpx5AAu5WiRFrbqswEIw0PLtf5A1N2bvIRNfNS6BHkCUifX5t7qEhDahI-fYcbhOV14kwoOfIKtGhQyaGk1-OgBoPqK2Cprq5L2h7RIBw", "width": 280}], "place_id": "ChIJ_8PoacX3wokR7KS3oGPUbdI", "plus_code": {"compound_code": "R275+PG Cliffside Park, New Jersey", "global_code": "87G8R275+PG"}, "price_level": 2, "rating": 3.9, "reference": "ChIJ_8PoacX3wokR7KS3oGPUbdI", "scope": "GOOGLE", "types": ["gas_station", "convenience_store", "food", "point_of_interest", "store", "establishment"], "user_ratings_total": 13, "vicinity": "296 Palisade Ave, Cliffside Park"}, {"business_status": "OPERATIONAL", "geometry": {"location": {"lat": 40.8094076, "lng": -74.0016437}, "viewport": {"northeast": {"lat": 40.81085597989272, "lng": -74.00019972010728}, "southwest": {"lat": 40.80815632010728, "lng": -74.00289937989272}}}, "icon": "https://maps.gstatic.com/mapfiles/place_api/icons/gas_station-71.png", "id": "49721cdb4d9900819a2995f0a748ad877a7e8448", "name": "Delta Gas Station", "opening_hours": {"open_now": true}, "photos": [{"height": 2988, "html_attributions": ["<a href=\"https://maps.google.com/maps/contrib/107135631375758838810\">A Google User</a>"], "photo_reference": "CmRaAAAA_dOdF30bCB26ImsuOJOE-U73C1AoudPtaAkJn1a61QVtB0BhNoImlQB7gu-VDkUpPlC5ysO1VnKrLRBAhJjLdzXkFDtuVkikOknQESvJZg07sI1vIrnHJrAmwW7e_jMLEhBw69-T7faruBSK9xSZbxGRGhQ7OE1yRu5z2P35c7cIYmpiZR31Ag", "width": 5312}], "place_id": "ChIJuxW9ncP3wokRrK5ymZY__go", "plus_code": {"compound_code": "RX5X+Q8 North Bergen, New Jersey", "global_code": "87G7RX5X+Q8"}, "rating": 3.8, "reference": "ChIJuxW9ncP3wokRrK5ymZY__go", "scope": "GOOGLE", "types": ["gas_station", "point_of_interest", "establishment"], "user_ratings_total": 25, "vicinity": "9280 John F. Kennedy Blvd, North Bergen"}, {"business_status": "OPERATIONAL", "geometry": {"location": {"lat": 40.7980366, "lng": -73.93364849999999}, "viewport": {"northeast": {"lat": 40.79932292989272, "lng": -73.93239557010727}, "southwest": {"lat": 40.79662327010728, "lng": -73.93509522989272}}}, "icon": "https://maps.gstatic.com/mapfiles/place_api/icons/gas_station-71.png", "id": "9ae1933ed3b9832207bac8ca3c5ee4a8af8465ab", "name": "BP", "opening_hours": {"open_now": true}, "photos": [{"height": 4608, "html_attributions": ["<a href=\"https://maps.google.com/maps/contrib/105096571909275290014\">abdelkader boudina</a>"], "photo_reference": "CmRaAAAAiL1kiFGnHam5L1m-IHHnOSIcWRow7LBGJj6HwML1oSYhJvB4LWvTmJ09F_-2UtZHxWMS-fqXrjDVst_xfmHici89GO3IJ5kXtuk30N_xmwgOLIXer-qPh4mH97oDv38QEhAdAJyJWNB695rRSuPXGrXyGhTZ2Pj2uT3Uk9lwnVL-mg_SUHiCmw", "width": 3456}], "place_id": "ChIJBRekz-L1wokRhYltYh0-Fck", "plus_code": {"compound_code": "Q3X8+6G New York", "global_code": "87G8Q3X8+6G"}, "rating": 3.7, "reference": "ChIJBRekz-L1wokRhYltYh0-Fck", "scope": "GOOGLE", "types": ["gas_station", "atm", "convenience_store", "finance", "food", "point_of_interest", "store", "establishment"], "user_ratings_total": 20, "vicinity": "2326 1st Avenue, New York"}, {"business_status": "OPERATIONAL", "geometry": {"location": {"lat": 40.8075414, "lng": -73.9375895}, "viewport": {"northeast": {"lat": 40.80884622989272, "lng": -73.93627317010728}, "southwest": {"lat": 40.80614657010728, "lng": -73.93897282989273}}}, "icon": "https://maps.gstatic.com/mapfiles/place_api/icons/gas_station-71.png", "id": "51cf9870758542914c402069ec101ffa302d60f6", "name": "BP", "opening_hours": {"open_now": true}, "photos": [{"height": 4096, "html_attributions": ["<a href=\"https://maps.google.com/maps/contrib/100985378943959514562\">Angel Mercado</a>"], "photo_reference": "CmRaAAAADrYBIORjJ1MiYf3mjcqFyszYdPgM64Gqqt9b4Kb5T6zAGEBqSCWF_0loFzhTijPkNrb1LnRbwCGP7mKgYUCRPTJsf82uN33NZIKnsGH4BilLhU-a83EPH1aOi3X9fcJ-EhD4g9TGgNL1xJo1uoMyEF9SGhTuRRU03w4gOKUDQOtO1fq0BSvLfw", "width": 2304}], "place_id": "ChIJg2SIyQr2wokRNl9y7o8fmoA", "plus_code": {"compound_code": "R356+2X New York", "global_code": "87G8R356+2X"}, "rating": 3.9, "reference": "ChIJg2SIyQr2wokRNl9y7o8fmoA", "scope": "GOOGLE", "types": ["gas_station", "atm", "finance", "point_of_interest", "establishment"], "user_ratings_total": 142, "vicinity": "1890 Park Ave, New York"}, {"business_status": "OPERATIONAL", "geometry": {"location": {"lat": 40.7559733, "lng": -73.99788880000001}, "viewport": {"northeast": {"lat": 40.75724737989272, "lng": -73.99664937010728}, "southwest": {"lat": 40.75454772010728, "lng": -73.99934902989273}}}, "icon": "https://maps.gstatic.com/mapfiles/place_api/icons/gas_station-71.png", "id": "1fa74e2044aa561b1df4ecef8d331b76c1abfe4c", "name": "BP", "opening_hours": {"open_now": true}, "photos": [{"height": 1440, "html_attributions": ["<a href=\"https://maps.google.com/maps/contrib/113650357208073405047\">Joshua Bernstein</a>"], "photo_reference": "CmRaAAAA1bHH4MAaS7ajZZZfYG51JYNBnHOp8WM8JCMAQ56UVw7ygui7ehFeR7_h3X-fG-XlWlFRuhuRPx-LLZRI0oLoDpCBQnTrop1embpVzASIFHTGo0YgpxSdguNpG_bTUldGEhC3hfDw8nvZ_hYD4Sn7TjTZGhQpz6gHmOQ6ArSqod0oXI-mIsyiJw", "width": 2560}], "place_id": "ChIJQ8aGILNZwokRrd9xqr2bUd0", "plus_code": {"compound_code": "Q242+9R New York", "global_code": "87G8Q242+9R"}, "rating": 3.5, "reference": "ChIJQ8aGILNZwokRrd9xqr2bUd0", "scope": "GOOGLE", "types": ["gas_station", "atm", "convenience_store", "finance", "food", "point_of_interest", "store", "establishment"], "user_ratings_total": 80, "vicinity": "466 10th Ave, New York"}, {"business_status": "OPERATIONAL", "geometry": {"location": {"lat": 40.7878039, "lng": -74.023363}, "viewport": {"northeast": {"lat": 40.78915137989271, "lng": -74.02202797010727}, "southwest": {"lat": 40.78645172010727, "lng": -74.02472762989271}}}, "icon": "https://maps.gstatic.com/mapfiles/place_api/icons/gas_station-71.png", "id": "f5504109588268a912781bef16bb27a1f852bd77", "name": "76", "opening_hours": {"open_now": true}, "photos": [{"height": 2448, "html_attributions": ["<a href=\"https://maps.google.com/maps/contrib/101226160964100604075\">Mikias Bedi</a>"], "photo_reference": "CmRaAAAAKymZdQEnguW-eokk_RZplaTO0KDx-2jFX_nM5j-iyEYLWdbZfalE3vwlZ5cx-UisBN0U89tOl7Egx0q7unRnEOMNlsmCxsmCcpikXlKEkKNgxqWUvq7hSK8Zy-IYVoT_EhDTGxHz73-hacChLQcfN-mIGhQSmdgoDuh5qz9KwtY5tok5CcLruQ", "width": 3264}], "place_id": "ChIJaezQnBtYwokRsc9xthcCDas", "plus_code": {"compound_code": "QXQG+4M West New York, New Jersey", "global_code": "87G7QXQG+4M"}, "price_level": 2, "rating": 4.2, "reference": "ChIJaezQnBtYwokRsc9xthcCDas", "scope": "GOOGLE", "types": ["gas_station", "point_of_interest", "establishment"], "user_ratings_total": 37, "vicinity": "5500 John F. Kennedy Blvd, West New York"}, {"business_status": "OPERATIONAL", "geometry": {"location": {"lat": 40.7524963, "lng": -73.9391277}, "viewport": {"northeast": {"lat": 40.75376077989272, "lng": -73.93778687010727}, "southwest": {"lat": 40.75106112010727, "lng": -73.94048652989272}}}, "icon": "https://maps.gstatic.com/mapfiles/place_api/icons/gas_station-71.png", "id": "12bddc265e0fbda099eaf1ceb9afe9623aa9f79c", "name": "E-Z STATION", "opening_hours": {"open_now": true}, "photos": [{"height": 4608, "html_attributions": ["<a href=\"https://maps.google.com/maps/contrib/111080212749588704543\">Troy Haar</a>"], "photo_reference": "CmRaAAAAGj6dj18JVCs8EUHrfjleCtdmzeWkgzqHgdv0erD5iM_fhOmWbAy3hVb5MYA1kz30qDQyuwqMO5lLd1BCGPFtjHQgUXpkv7EnVzXzDQzlQ2A3305SAnhC3QAVwjT4h5NQEhCaNCXm2amYhZMd1LJHQxkyGhSVl32L9nymD2PLJZlTohWlGeHVFA", "width": 2592}], "place_id": "ChIJs_VGXtRYwokRTX-FwLsGQFw", "plus_code": {"compound_code": "Q326+X8 New York", "global_code": "87G8Q326+X8"}, "rating": 4, "reference": "ChIJs_VGXtRYwokRTX-FwLsGQFw", "scope": "GOOGLE", "types": ["gas_station", "point_of_interest", "establishment"], "user_ratings_total": 75, "vicinity": "4040 Crescent St, Long Island City"}, {"business_status": "OPERATIONAL", "geometry": {"location": {"lat": 40.7739212, "lng": -74.0342132}, "viewport": {"northeast": {"lat": 40.77523507989272, "lng": -74.03289367010727}, "southwest": {"lat": 40.77253542010728, "lng": -74.03559332989272}}}, "icon": "https://maps.gstatic.com/mapfiles/place_api/icons/gas_station-71.png", "id": "d557fa2c87dc437727a651b6b2d92b88031de9bb", "name": "Station Gas Nj", "place_id": "ChIJKf15amlXwokRI-FV2Ycx4sw", "plus_code": {"compound_code": "QXF8+H8 Union City, New Jersey", "global_code": "87G7QXF8+H8"}, "rating": 5, "reference": "ChIJKf15amlXwokRI-FV2Ycx4sw", "scope": "GOOGLE", "types": ["gas_station", "point_of_interest", "establishment"], "user_ratings_total": 2, "vicinity": "820 31st St, Union City"}, {"business_status": "OPERATIONAL", "geometry": {"location": {"lat": 40.8297698, "lng": -74.0101719}, "viewport": {"northeast": {"lat": 40.83104337989272, "lng": -74.00890362010729}, "southwest": {"lat": 40.82834372010728, "lng": -74.01160327989274}}}, "icon": "https://maps.gstatic.com/mapfiles/place_api/icons/gas_station-71.png", "id": "4c0b9e43090cbfa19dab8230b8505cde0fec8478", "name": "Sunoco Gas Station", "opening_hours": {"open_now": true}, "photos": [{"height": 3024, "html_attributions": ["<a href=\"https://maps.google.com/maps/contrib/108739809479637536000\">Brett Baker</a>"], "photo_reference": "CmRaAAAAoFm97QbP7_23FUPpLtspROtpP5oV4SMQBgApAuaLizFbQf1s1Ph99YDKVy6Lq3G0zV7YOyHSRZxXkOrv92AAce0gY3Lp79gZEtrDzXV7PZsJngxEbLdnVzsGJnXFhZh8EhAxAde8dfewgVVb_u5In2ldGhRnpfZ8orb6Tyj1uEndbI_fIRKa2A", "width": 4032}], "place_id": "ChIJIbtnsZn3wokRzLZBt1152kk", "plus_code": {"compound_code": "RXHQ+WW Ridgefield, New Jersey", "global_code": "87G7RXHQ+WW"}, "price_level": 2, "rating": 3.6, "reference": "ChIJIbtnsZn3wokRzLZBt1152kk", "scope": "GOOGLE", "types": ["gas_station", "point_of_interest", "establishment"], "user_ratings_total": 28, "vicinity": "452-462 Broad Ave, Ridgefield"}, {"business_status": "OPERATIONAL", "geometry": {"location": {"lat": 40.8302583, "lng": -73.9405417}, "viewport": {"northeast": {"lat": 40.83171762989272, "lng": -73.93905867010727}, "southwest": {"lat": 40.82901797010728, "lng": -73.94175832989272}}}, "icon": "https://maps.gstatic.com/mapfiles/place_api/icons/gas_station-71.png", "id": "bc97c836b7d8534878548be9a9fb1d263d097615", "name": "Global Gas Station", "opening_hours": {"open_now": true}, "photos": [{"height": 4032, "html_attributions": ["<a href=\"https://maps.google.com/maps/contrib/103518972835102686818\">Juan Ramirez</a>"], "photo_reference": "CmRaAAAAOnVsrsOfNIkp7eF3AT3TpnVZY3uiXzoNBYGVwcXpMzl7cIws8-KfYMtjrNKiwz-QrqgZTduL5VjKRT7iaCLDper-q_WlXStyqF9lgzkcRmK2ldXhFtzW88Aji0Hp3bE-EhC2n9gEycRKbjw6Pd41T1PyGhSg_Z4Vy5bVU_YmPUi63I9-MP7plw", "width": 3024}], "place_id": "ChIJ758U3oD2wokREb2TNNm6VdA", "plus_code": {"compound_code": "R3J5+4Q New York", "global_code": "87G8R3J5+4Q"}, "rating": 4, "reference": "ChIJ758U3oD2wokREb2TNNm6VdA", "scope": "GOOGLE", "types": ["gas_station", "point_of_interest", "establishment"], "user_ratings_total": 28, "vicinity": "89 St Nicholas Pl, New York"}, {"business_status": "OPERATIONAL", "geometry": {"location": {"lat": 40.8054638, "lng": -73.911329}, "viewport": {"northeast": {"lat": 40.80673377989272, "lng": -73.90991237010728}, "southwest": {"lat": 40.80403412010727, "lng": -73.91261202989271}}}, "icon": "https://maps.gstatic.com/mapfiles/place_api/icons/gas_station-71.png", "id": "e18e2842ec6303ad7ca1fd556e0ec0b33e0c26a5", "name": "Gas station", "opening_hours": {}, "place_id": "ChIJJVGYlL_1wokRAHqR3MXCWYE", "plus_code": {"compound_code": "R34Q+5F The Bronx, New York", "global_code": "87G8R34Q+5F"}, "rating": 4.3, "reference": "ChIJJVGYlL_1wokRAHqR3MXCWYE", "scope": "GOOGLE", "types": ["gas_station", "point_of_interest", "establishment"], "user_ratings_total": 19, "vicinity": "281 Bruckner Blvd, The Bronx"}, {"business_status": "OPERATIONAL", "geometry": {"location": {"lat": 40.779443, "lng": -73.9063517}, "viewport": {"northeast": {"lat": 40.78088047989272, "lng": -73.90498607010727}, "southwest": {"lat": 40.77818082010728, "lng": -73.9076857298927}}}, "icon": "https://maps.gstatic.com/mapfiles/place_api/icons/gas_station-71.png", "id": "72a7a3194281fcb3a62996aad578f26463331ddc", "name": "Gulf Gas Station", "opening_hours": {}, "photos": [{"height": 1536, "html_attributions": ["<a href=\"https://maps.google.com/maps/contrib/107821815236197059478\">sinan erel</a>"], "photo_reference": "CmRaAAAAYR8YZ15qGLoDg1UNLx9fERzuMXyVcEXBa8nxGPT9hG9WNaXcdRhG9v3lN1WrRtw7_asi91ZWX6NXz0U09ISl_MS9QB44JZJdrcM9STLvAoZ42dBl_U2-7II6r1yw-m1sEhCB4i98eGcLQy5qLMpPn1vWGhTh3CJp2vyHFkjFFwSXSC1_uR8-KA", "width": 2048}], "place_id": "ChIJ4f2r4mNfwokR7GZttxZPI3s", "plus_code": {"compound_code": "Q3HV+QF Queens, New York", "global_code": "87G8Q3HV+QF"}, "rating": 3.2, "reference": "ChIJ4f2r4mNfwokR7GZttxZPI3s", "scope": "GOOGLE", "types": ["gas_station", "point_of_interest", "establishment"], "user_ratings_total": 32, "vicinity": "2001 31st St, Queens"}], "status": "OK"}