{"html_attributions": [], "next_page_token": "CrQCLAEAAONDkElxs8XDr2vex-TDsChpA1PD_WsoIPtwia1teWvimPFVfKubjO8OSre-7nA0Vigr66uGwQ5o8ArxCD9o5X8gpcRjkLbkohjtNnJ-UqhvNTIj023X7K5FinDAZb_yfMROapM6Og97Y-DoVx0dZwughywbBiwqFh0SAd79RQeI614_8x_oo6MikRa25XoNNAEHXiAjmdlB8uaAXwi17dUo7Rt-RhPEu2VWlIntsIXOEfwIDrwOlNTBJSvTGy-FbY_FW3PN4Dq4Q7hFru5vk0-fiqn8PB3x74jmsxeJXsVM57vzoHLQd99MprCNREZAuXa92ZWNHMZrJN4kdGd16bkLcGhcGeyTS_-M-h4K0GmIIt11Y0w-g9yhNFMljJYmi1klVvIoKeynK5T-wbEESHMSEBukpghR226rRF3oT-RCCKcaFJfl3eQ2VtSwfQB7QQg_sO9jUhhw", "results": [{"business_status": "OPERATIONAL", "geometry": {"location": {"lat": 40.7830687, "lng": -73.9451863}, "viewport": {"northeast": {"lat": 40.78448007989272, "lng": -73.94367887010729}, "southwest": {"lat": 40.78178042010727, "lng": -73.94637852989274}}}, "icon": "https://maps.gstatic.com/mapfiles/place_api/icons/gas_station-71.png", "id": "6c03cb748d5b30d3f6e4e76d0f783e000b48ae35", "name": "Shell", "opening_hours": {"open_now": true}, "photos": [{"height": 4032, "html_attributions": ["<a href=\"https://maps.google.com/maps/contrib/109724224782175428791\">A Google User</a>"], "photo_reference": "CmRaAAAARSrinhv9TDSlKS4_sKdt8hSQP7CFPlUOV72g5jgBAiVNMCJ_85x5aYy_U5kMz4d6Bl2xXxkWhyHReu5GU8w__YZpl3OjQckF4nFlUNX11-leN_e0bRcxyxYRMpyQkkyUEhB0Eve9q3oyOxDj8rkIExw2GhSBeVdGci6IquCXm38uHd04glpjFg", "width": 3024}], "place_id": "ChIJq8fzIa9YwokROklzwk3TIp8", "plus_code": {"compound_code": "Q3M3+6W New York", "global_code": "87G8Q3M3+6W"}, "price_level": 2, "rating": 3.6, "reference": "ChIJq8fzIa9YwokROklzwk3TIp8", "scope": "GOOGLE", "types": ["gas_station", "atm", "convenience_store", "finance", "food", "point_of_interest", "store", "establishment"], "user_ratings_total": 289, "vicinity": "1855 1st Avenue, New York"}, {"business_status": "OPERATIONAL", "geometry": {"location": {"lat": 40.78929400000001, "lng": -73.9478855}, "viewport": {"northeast": {"lat": 40.79080407989272, "lng": -73.94670422010728}, "southwest": {"lat": 40.78810442010727, "lng": -73.94940387989273}}}, "icon": "https://maps.gstatic.com/mapfiles/place_api/icons/gas_station-71.png", "id": "1f3c1a702d5fe4a4674f92d686d7471c63c9409c", "name": "Shell", "opening_hours": {"open_now": true}, "photos": [{"height": 3024, "html_attributions": ["<a href=\"https://maps.google.com/maps/contrib/107068838566965446335\">Moe Friedman</a>"], "photo_reference": "CmRaAAAA1xKUjQYctAv7RflIgrAI16yc5wHcsFS9mW_JjpJcgQk7LiwKvWAoCAIer8kXr298VsBU_VDsaK_cC-px0zUeRFbZ7FTrOg4dG4lReamXEnCCZJE4av35JfjWYBm0Y0LJEhBUSpP3dRAIMI9NfjWlIcKkGhSKFStDYcT7-d0SE9rY-CbrLKnSlQ", "width": 4032}], "place_id": "ChIJQcGj_qdYwokRtce4riQA7ec", "plus_code": {"compound_code": "Q3Q2+PR New York", "global_code": "87G8Q3Q2+PR"}, "price_level": 2, "rating": 3.7, "reference": "ChIJQcGj_qdYwokRtce4riQA7ec", "scope": "GOOGLE", "types": ["gas_station", "convenience_store", "food", "point_of_interest", "store", "establishment"], "user_ratings_total": 74, "vicinity": "1599 Lexington Ave, New York"}, {"business_status": "OPERATIONAL", "geometry": {"location": {"lat": 40.789592, "lng": -73.94039459999999}, "viewport": {"northeast": {"lat": 40.79093232989272, "lng": -73.93893512010727}, "southwest": {"lat": 40.78823267010728, "lng": -73.94163477989271}}}, "icon": "https://maps.gstatic.com/mapfiles/place_api/icons/gas_station-71.png", "id": "c67b48371347ebc7ea1054e4f39d0e98b7691e9e", "name": "EASTSIDES AUTO SERVICE", "opening_hours": {"open_now": true}, "photos": [{"height": 2268, "html_attributions": ["<a href=\"https://maps.google.com/maps/contrib/113647500004240593967\">Boaz Sedaghatfar</a>"], "photo_reference": "CmRaAAAAXf_KbwVdA8yhVpjLhcjXvD7niyfDT1ujBpGnANTn76wpqaKBje1vfgfdUCON7ahD6CGQqeHrqAqcvoyL9-jgxdRtbep383vjFLfrWzhtWaqBaL9UDr_2jfQrNxPJrg-iEhDHJGV7GVHjf3cxzR6Fz9zQGhSt3IYRmaHmSHktEDJ16hRzXXL8kA", "width": 4032}], "place_id": "ChIJVzHWlAH2wokRMrPfz959gPM", "plus_code": {"compound_code": "Q3Q5+RR New York", "global_code": "87G8Q3Q5+RR"}, "rating": 4, "reference": "ChIJVzHWlAH2wokRMrPfz959gPM", "scope": "GOOGLE", "types": ["gas_station", "point_of_interest", "establishment"], "user_ratings_total": 85, "vicinity": "348 E 106th St, New York"}, {"business_status": "OPERATIONAL", "geometry": {"location": {"lat": 40.7590124, "lng": -73.9379986}, "viewport": {"northeast": {"lat": 40.76041797989272, "lng": -73.93659727010727}, "southwest": {"lat": 40.75771832010727, "lng": -73.9392969298927}}}, "icon": "https://maps.gstatic.com/mapfiles/place_api/icons/gas_station-71.png", "id": "c57339e7a066ff8edcdcc1cbc0e56635800f7c2b", "name": "BP", "opening_hours": {"open_now": true}, "photos": [{"height": 3024, "html_attributions": ["<a href=\"https://maps.google.com/maps/contrib/114592143269096100906\">Jesse Spector</a>"], "photo_reference": "CmRaAAAAVO9A7eb3TweH3thzpq5pOwWzD_lCJ58CKfEMHuPBYP-kQsIK7vt00Pb6gh6pCyBQcANe8MfcRojwbwR29y9FJufhDQGFcdILjEoc9QPwDuinwvaE6UKBl0yMa0eM3iXKEhBy-kfmRxrCtsZrVqSEisJuGhTi2DTZq_Rtkjkci9Yi5iQ6WY95gA", "width": 4032}], "place_id": "ChIJ60q4Zc1YwokRlQwmO3T--BQ", "plus_code": {"compound_code": "Q356+JR Queens, New York", "global_code": "87G8Q356+JR"}, "rating": 1.9, "reference": "ChIJ60q4Zc1YwokRlQwmO3T--BQ", "scope": "GOOGLE", "types": ["gas_station", "convenience_store", "food", "point_of_interest", "store", "establishment"], "user_ratings_total": 9, "vicinity": "36-42 21st St, Queens"}, {"business_status": "OPERATIONAL", "geometry": {"location": {"lat": 40.757386, "lng": -73.939516}, "viewport": {"northeast": {"lat": 40.75875617989272, "lng": -73.93803737010728}, "southwest": {"lat": 40.75605652010728, "lng": -73.94073702989273}}}, "icon": "https://maps.gstatic.com/mapfiles/place_api/icons/gas_station-71.png", "id": "f5061fc2e8bb7782dbb208dc23f8b26fc81a7bb1", "name": "Shell", "opening_hours": {"open_now": true}, "photos": [{"height": 4032, "html_attributions": ["<a href=\"https://maps.google.com/maps/contrib/115728342827887775821\">A Google User</a>"], "photo_reference": "CmRaAAAAZjeekNh9UFeAtF3_me5A_lpTxdA8gX8vnArgqF2C4KR1JGJ9Csr3y7RzLjJSUo7Dym5zjuhHsSID52j0rf28o6heO54H_tDNFbIdQ3vz5P2Ywuo4zO8S4wGmnqJnLf3JEhBKKYQF7-IIzjlRxDSPfXgEGhQU9WRBqAxwmdKro_69Y6kDeYKpHA", "width": 3024}], "place_id": "ChIJHVDhXNJYwokRbODm_M-EG7Y", "plus_code": {"compound_code": "Q346+X5 Long Island City, Queens, NY", "global_code": "87G8Q346+X5"}, "price_level": 2, "rating": 3.8, "reference": "ChIJHVDhXNJYwokRbODm_M-EG7Y", "scope": "GOOGLE", "types": ["gas_station", "atm", "convenience_store", "finance", "restaurant", "food", "point_of_interest", "store", "establishment"], "user_ratings_total": 55, "vicinity": "3802 21st St, Long Island City"}, {"business_status": "OPERATIONAL", "geometry": {"location": {"lat": 40.76780919999999, "lng": -73.9289012}, "viewport": {"northeast": {"lat": 40.76921872989272, "lng": -73.92760917010727}, "southwest": {"lat": 40.76651907010728, "lng": -73.93030882989272}}}, "icon": "https://maps.gstatic.com/mapfiles/place_api/icons/gas_station-71.png", "id": "671a4c2c18b0409d10a126dd93809ab4cbf44f1f", "name": "31 GAS CORP.", "opening_hours": {"open_now": true}, "photos": [{"height": 3024, "html_attributions": ["<a href=\"https://maps.google.com/maps/contrib/109038137107910624574\">r. plasz</a>"], "photo_reference": "CmRaAAAAQztqG6bEM9ekjwJprnxp8B7yb__tm68Xl-0a74OVl2dpphmuWN1-S_NgiEHaApQ-ScipAP_j6KIc3SYXUSFjWiDiBQ52AmssDFbeCZFUj5PSj35Mur3Kl9Zhy-nHMmXFEhA5plCfAlkSHFCReIseyMf1GhQmssyOodpoXoK6QUbnRVMpVz2alw", "width": 4032}], "place_id": "ChIJKUHM6ElfwokRrDEMv_4AuyY", "plus_code": {"compound_code": "Q39C+4C Astoria, Queens, NY", "global_code": "87G8Q39C+4C"}, "rating": 3.8, "reference": "ChIJKUHM6ElfwokRrDEMv_4AuyY", "scope": "GOOGLE", "types": ["gas_station", "point_of_interest", "establishment"], "user_ratings_total": 13, "vicinity": "30-75 21st St, Astoria"}, {"business_status": "OPERATIONAL", "geometry": {"location": {"lat": 40.7520222, "lng": -73.94465129999999}, "viewport": {"northeast": {"lat": 40.75331207989272, "lng": -73.94319752010728}, "southwest": {"lat": 40.75061242010727, "lng": -73.94589717989273}}}, "icon": "https://maps.gstatic.com/mapfiles/place_api/icons/gas_station-71.png", "id": "3c671566cba445f34565ebe26cc46b16a2480b10", "name": "Sunoco", "place_id": "ChIJ980NVdZYwokRbQNY5TcpRa8", "plus_code": {"compound_code": "Q324+R4 Long Island City, Queens, NY", "global_code": "87G8Q324+R4"}, "rating": 0, "reference": "ChIJ980NVdZYwokRbQNY5TcpRa8", "scope": "GOOGLE", "types": ["gas_station", "point_of_interest", "establishment"], "user_ratings_total": 0, "vicinity": "4202 21st St, Long Island City"}, {"business_status": "OPERATIONAL", "geometry": {"location": {"lat": 40.7524963, "lng": -73.9391277}, "viewport": {"northeast": {"lat": 40.75376077989272, "lng": -73.93778687010727}, "southwest": {"lat": 40.75106112010727, "lng": -73.94048652989272}}}, "icon": "https://maps.gstatic.com/mapfiles/place_api/icons/gas_station-71.png", "id": "12bddc265e0fbda099eaf1ceb9afe9623aa9f79c", "name": "E-Z STATION", "opening_hours": {"open_now": true}, "photos": [{"height": 4608, "html_attributions": ["<a href=\"https://maps.google.com/maps/contrib/111080212749588704543\">Troy Haar</a>"], "photo_reference": "CmRaAAAA-fWP0bxgMxU9KZgx_MZDqrwaBBwbuQz1NFkDxGVDHyZDcAzHepz-wHwrnoGVCvZIWO8UjTlHrrDvnQybgP3VQKwCovhnqCKBnu6gH60wQHoRfeufD9B6MTuznZIFJn9JEhBVhb54lYkeI6_JJ39tJi5EGhQbAfbflM9dLlCNn1PRUfN-8MYGSQ", "width": 2592}], "place_id": "ChIJs_VGXtRYwokRTX-FwLsGQFw", "plus_code": {"compound_code": "Q326+X8 New York", "global_code": "87G8Q326+X8"}, "rating": 4, "reference": "ChIJs_VGXtRYwokRTX-FwLsGQFw", "scope": "GOOGLE", "types": ["gas_station", "point_of_interest", "establishment"], "user_ratings_total": 75, "vicinity": "4040 Crescent St, Long Island City"}, {"business_status": "OPERATIONAL", "geometry": {"location": {"lat": 40.7956933, "lng": -73.9737653}, "viewport": {"northeast": {"lat": 40.79696887989272, "lng": -73.97247017010729}, "southwest": {"lat": 40.79426922010727, "lng": -73.97516982989274}}}, "icon": "https://maps.gstatic.com/mapfiles/place_api/icons/gas_station-71.png", "id": "0977ee617b988a4708111e98054571b4e14d4f36", "name": "315 W 96 SERVICE CENTER", "opening_hours": {"open_now": true}, "photos": [{"height": 3024, "html_attributions": ["<a href=\"https://maps.google.com/maps/contrib/105646658147124911136\">Arthur Stoute</a>"], "photo_reference": "CmRaAAAAkeGlIQevzLl2hAeWDvwL3ipotMG9FTeUHjE7jGu7uJe2IFufK2ZwOrivwzQI8jonS1snuqhETfk0y5MsfqVjY1rN-AIadAAGkf8G0ZRsl5Mrdusq2KiYV3O1qixux_r2EhCxLJGjr1XDLxl7pCWFSVKZGhSc5PQwxn6BdNsaMP5QvCerTaiOEQ", "width": 4032}], "place_id": "ChIJ371tVij2wokRWEBLYby98zo", "plus_code": {"compound_code": "Q2WG+7F New York", "global_code": "87G8Q2WG+7F"}, "rating": 3.5, "reference": "ChIJ371tVij2wokRWEBLYby98zo", "scope": "GOOGLE", "types": ["gas_station", "point_of_interest", "establishment"], "user_ratings_total": 165, "vicinity": "303 W 96th St, New York"}, {"business_status": "OPERATIONAL", "geometry": {"location": {"lat": 40.753895, "lng": -73.93162199999999}, "viewport": {"northeast": {"lat": 40.75513842989272, "lng": -73.93037102010727}, "southwest": {"lat": 40.75243877010728, "lng": -73.93307067989272}}}, "icon": "https://maps.gstatic.com/mapfiles/place_api/icons/generic_business-71.png", "id": "e52cc4196c91937879e4ad0d8ce18df28fe3a470", "name": "ZA & D. Service Station", "opening_hours": {"open_now": false}, "photos": [{"height": 3000, "html_attributions": ["<a href=\"https://maps.google.com/maps/contrib/100853654666324482699\">Anthony Koulizakis</a>"], "photo_reference": "CmRaAAAAhm5YTFMol8zi4INEeyi4_ussXHU3lbNu_YjCKtoNxU8It37hrZPr-fHOhH2me3Hq93Rhx6bXyawIYVko4Ya9ZKSLHVq_5Xj0-CQoKIk4azb9vC_1-ltpMfvA1oYYLaaNEhCCECtrgidqU2Grbkr9GOXGGhTlBqXU8XWXe0MG3SvrQqXzl_-GQw", "width": 4000}], "place_id": "ChIJ1aNvayxfwokREcVjbnZmDxQ", "plus_code": {"compound_code": "Q339+H9 Long Island City, Queens, NY", "global_code": "87G8Q339+H9"}, "rating": 5, "reference": "ChIJ1aNvayxfwokREcVjbnZmDxQ", "scope": "GOOGLE", "types": ["gas_station", "car_repair", "point_of_interest", "establishment"], "user_ratings_total": 23, "vicinity": "31-5 38th Ave, Long Island City"}, {"business_status": "OPERATIONAL", "geometry": {"location": {"lat": 40.7663124, "lng": -73.9940142}, "viewport": {"northeast": {"lat": 40.76771072989273, "lng": -73.99276852010728}, "southwest": {"lat": 40.76501107010728, "lng": -73.99546817989271}}}, "icon": "https://maps.gstatic.com/mapfiles/place_api/icons/gas_station-71.png", "id": "3f54b6d8d8098095a09cf768f881167194271bf0", "name": "BISMA MOBIL", "opening_hours": {"open_now": true}, "photos": [{"height": 1830, "html_attributions": ["<a href=\"https://maps.google.com/maps/contrib/105170431124683218627\">Marc Gonzalez</a>"], "photo_reference": "CmRaAAAA-zBqXQi5v9Zl1VzQydxvynySXaiB3WyqFptu-Pcx7mckCjOpk1G2kYnv0-5C0LQH2ksD9ZCD7-2dqaHCeGhuNpLdpa6-LkuWzeEAJ60dnseKymD7YbcAv_xs277pckK9EhDuVEEg4oJ_iKeDEdM8jvo-GhR_vw7l4z2Rdds2cCApZ4pMdcsZSQ", "width": 2060}], "place_id": "ChIJH9qNB1BYwokRYaZyDVGQiKk", "plus_code": {"compound_code": "Q284+G9 New York", "global_code": "87G8Q284+G9"}, "rating": 3, "reference": "ChIJH9qNB1BYwokRYaZyDVGQiKk", "scope": "GOOGLE", "types": ["gas_station", "point_of_interest", "establishment"], "user_ratings_total": 364, "vicinity": "718 11th Ave, New York"}, {"business_status": "OPERATIONAL", "geometry": {"location": {"lat": 40.7980366, "lng": -73.93364849999999}, "viewport": {"northeast": {"lat": 40.79932292989272, "lng": -73.93239557010727}, "southwest": {"lat": 40.79662327010728, "lng": -73.93509522989272}}}, "icon": "https://maps.gstatic.com/mapfiles/place_api/icons/gas_station-71.png", "id": "9ae1933ed3b9832207bac8ca3c5ee4a8af8465ab", "name": "BP", "opening_hours": {"open_now": true}, "photos": [{"height": 4608, "html_attributions": ["<a href=\"https://maps.google.com/maps/contrib/105096571909275290014\">abdelkader boudina</a>"], "photo_reference": "CmRaAAAAsWRO60n1LUIYRd2iKCXCPmf6fdE7xxEpE0kVsd9DFGfLQ5T3V2XxuZBMMo4_mJi1YgfpUQdO2l3Bswwn6vohRKteptnssrHKvqmyYaTfUViIMJZm-GmGI-OFDZ82W22eEhB5w3jzguxaZ-jqStT5d0KUGhSqs3t8OU783oFL81TQjnbu-Ryn4g", "width": 3456}], "place_id": "ChIJBRekz-L1wokRhYltYh0-Fck", "plus_code": {"compound_code": "Q3X8+6G New York", "global_code": "87G8Q3X8+6G"}, "rating": 3.7, "reference": "ChIJBRekz-L1wokRhYltYh0-Fck", "scope": "GOOGLE", "types": ["gas_station", "atm", "convenience_store", "finance", "food", "point_of_interest", "store", "establishment"], "user_ratings_total": 20, "vicinity": "2326 1st Avenue, New York"}, {"business_status": "OPERATIONAL", "geometry": {"location": {"lat": 40.779443, "lng": -73.9063517}, "viewport": {"northeast": {"lat": 40.78088047989272, "lng": -73.90498607010727}, "southwest": {"lat": 40.77818082010728, "lng": -73.9076857298927}}}, "icon": "https://maps.gstatic.com/mapfiles/place_api/icons/gas_station-71.png", "id": "72a7a3194281fcb3a62996aad578f26463331ddc", "name": "Gulf Gas Station", "opening_hours": {}, "photos": [{"height": 1536, "html_attributions": ["<a href=\"https://maps.google.com/maps/contrib/107821815236197059478\">sinan erel</a>"], "photo_reference": "CmRaAAAA-ekYlTOdlG3BepNAof2vEVlbiDSGXsOUXoTaGCcauRCnWk99SAAnRnVQ4O8qjyY0JnhuEaqH2fEUjkvg3j84ZH83jIWmcg5LfX-Rlfjy-4AwPTcoP761ea25eoub_2K6EhBOzO5-kI6DJsY2i7hiB_26GhS_gTnRoWt4X4OGSRldI-bwxmUQLw", "width": 2048}], "place_id": "ChIJ4f2r4mNfwokR7GZttxZPI3s", "plus_code": {"compound_code": "Q3HV+QF Queens, New York", "global_code": "87G8Q3HV+QF"}, "rating": 3.2, "reference": "ChIJ4f2r4mNfwokR7GZttxZPI3s", "scope": "GOOGLE", "types": ["gas_station", "point_of_interest", "establishment"], "user_ratings_total": 32, "vicinity": "2001 31st St, Queens"}, {"business_status": "OPERATIONAL", "geometry": {"location": {"lat": 40.7794404, "lng": -73.9063472}, "viewport": {"northeast": {"lat": 40.78080547989272, "lng": -73.90505207010727}, "southwest": {"lat": 40.77810582010727, "lng": -73.90775172989272}}}, "icon": "https://maps.gstatic.com/mapfiles/place_api/icons/gas_station-71.png", "id": "e2d46282526cd68e71ef352e796fa7647464a4e1", "name": "ATM (Gulf Gas Station)", "opening_hours": {}, "place_id": "ChIJEV0tGG9fwokRy3busoheQyk", "plus_code": {"compound_code": "Q3HV+QF Astoria, Queens, NY", "global_code": "87G8Q3HV+QF"}, "rating": 5, "reference": "ChIJEV0tGG9fwokRy3busoheQyk", "scope": "GOOGLE", "types": ["gas_station", "atm", "finance", "point_of_interest", "establishment"], "user_ratings_total": 1, "vicinity": "2001 31st St, Astoria"}, {"business_status": "OPERATIONAL", "geometry": {"location": {"lat": 40.7335091, "lng": -73.952507}, "viewport": {"northeast": {"lat": 40.73482422989272, "lng": -73.95103582010728}, "southwest": {"lat": 40.73212457010727, "lng": -73.95373547989271}}}, "icon": "https://maps.gstatic.com/mapfiles/place_api/icons/gas_station-71.png", "id": "39db0781f3c9227b1f18aa92ab7a24094b01d3f0", "name": "Gulf MJB Service Station", "opening_hours": {"open_now": true}, "photos": [{"height": 4032, "html_attributions": ["<a href=\"https://maps.google.com/maps/contrib/115074077063757267641\">A Google User</a>"], "photo_reference": "CmRaAAAAOQxZs6xVG7FDKZ_eNBmJT5Ykl8zzlMMQO0a8W9RDBTqggCT0yP-jEs68iRFGv__NC0_sLdgFX_S4tM8RD_QZHyqxYURN56u7mN8d_CM6W7YXnkccIHMePf9IlKJDJGvMEhBRlYH8UWuVQ92YFYSsXQxlGhQwWAb4sMNjc0xB47sztdq3xlOSGQ", "width": 3024}], "place_id": "ChIJa2-tIDlZwokRusXNzSxfYzQ", "plus_code": {"compound_code": "P2MW+CX Brooklyn, New York", "global_code": "87G8P2MW+CX"}, "rating": 3.7, "reference": "ChIJa2-tIDlZwokRusXNzSxfYzQ", "scope": "GOOGLE", "types": ["gas_station", "point_of_interest", "establishment"], "user_ratings_total": 68, "vicinity": "321 McGuinness Blvd #1817, Brooklyn"}, {"business_status": "OPERATIONAL", "geometry": {"location": {"lat": 40.7697954, "lng": -73.9019945}, "viewport": {"northeast": {"lat": 40.77119552989272, "lng": -73.90058287010727}, "southwest": {"lat": 40.76849587010727, "lng": -73.90328252989272}}}, "icon": "https://maps.gstatic.com/mapfiles/place_api/icons/gas_station-71.png", "id": "486b0fe46c094252eeb75036271463c34ca6ef8d", "name": "JEERS SERVICE STATION", "opening_hours": {"open_now": true}, "photos": [{"height": 346, "html_attributions": ["<a href=\"https://maps.google.com/maps/contrib/116179268636007372318\">Michael Roldan</a>"], "photo_reference": "CmRaAAAAB6d5Y10-0QuErNg1sX_i3YwiINb54MIbapninrOwbbGoIOPBDQ-u1j2qty7fCALv8XTyLwHdGdvHOKwXYljmyIIuJFQViAsoAltNAvls4ypGDdbcUh58orO3FxxWA5D5EhC4_fpP4ihoKFiYSmNKUJHZGhS_evKgRToeqEff92m1qstj8Dbpdw", "width": 718}], "place_id": "ChIJXZjhR25fwokRz0_KhX1Xnzw", "plus_code": {"compound_code": "Q39X+W6 Astoria, Queens, NY", "global_code": "87G8Q39X+W6"}, "rating": 3.6, "reference": "ChIJXZjhR25fwokRz0_KhX1Xnzw", "scope": "GOOGLE", "types": ["gas_station", "point_of_interest", "establishment"], "user_ratings_total": 20, "vicinity": "46-6 Ditmars Blvd, Astoria"}, {"business_status": "OPERATIONAL", "geometry": {"location": {"lat": 40.7678431, "lng": -73.9011119}, "viewport": {"northeast": {"lat": 40.76918122989272, "lng": -73.89990637010727}, "southwest": {"lat": 40.76648157010728, "lng": -73.90260602989272}}}, "icon": "https://maps.gstatic.com/mapfiles/place_api/icons/gas_station-71.png", "id": "c27804b035c5f3e7c922d2c1415b171d8ceb1d26", "name": "Sunoco Gas Station", "opening_hours": {"open_now": true}, "photos": [{"height": 4032, "html_attributions": ["<a href=\"https://maps.google.com/maps/contrib/111459739026042223904\">A Google User</a>"], "photo_reference": "CmRaAAAAOVx7a8oH693wYudGJhUH45bcPSqGzEtbtfvbatLj6IxxSNRd2Aunu-eTBm4wkeTBLI6QSG6dzZqojpWLvhC8XhmODSp0dCcLxUStNpDQN3qDIC5j_IRG2o5op1VROSd_EhB33izJz1uclHBs1jBZaMJxGhQ-Vc_zaC89kNEnbEDPLPZkUd_X2w", "width": 3024}], "place_id": "ChIJrXFX-W1fwokR_7TmdMkZ8W8", "plus_code": {"compound_code": "Q39X+4H East Elmhurst, Queens, NY", "global_code": "87G8Q39X+4H"}, "price_level": 2, "rating": 4.3, "reference": "ChIJrXFX-W1fwokR_7TmdMkZ8W8", "scope": "GOOGLE", "types": ["gas_station", "convenience_store", "food", "point_of_interest", "store", "establishment"], "user_ratings_total": 6, "vicinity": "49-05 Astoria Blvd S, East Elmhurst"}, {"business_status": "OPERATIONAL", "geometry": {"location": {"lat": 40.7860356, "lng": -74.0110064}, "viewport": {"northeast": {"lat": 40.78751172989272, "lng": -74.00976002010728}, "southwest": {"lat": 40.78481207010728, "lng": -74.01245967989273}}}, "icon": "https://maps.gstatic.com/mapfiles/place_api/icons/gas_station-71.png", "id": "d549ef36d6e0ec51f79cea4c100495a7861d27ae", "name": "RAMIREZ & SONS SERVICE STATION", "opening_hours": {"open_now": true}, "photos": [{"height": 3024, "html_attributions": ["<a href=\"https://maps.google.com/maps/contrib/117635884598597996727\">Solomon Bedi</a>"], "photo_reference": "CmRaAAAArGF7gbDTuk7dOYvh8V1DCUWh9mdzotw6nZTpZFU3DDMJmiTSB67eJhUY_R52u7_81LktvNOnuM2de8P6khewdKE7y5SUmyNPYShVSRTruwpW_vjqDMWJIS9fhm9MsHqSEhC17Ol2jN-pDmcHpn6AwxvPGhTDqPS-hYttdrSSELhBMSM7vLx_XA", "width": 4032}], "place_id": "ChIJXXjzyhNYwokR7F-Oo0RXl1o", "plus_code": {"compound_code": "QXPQ+CH West New York, New Jersey", "global_code": "87G7QXPQ+CH"}, "rating": 4.2, "reference": "ChIJXXjzyhNYwokR7F-Oo0RXl1o", "scope": "GOOGLE", "types": ["gas_station", "point_of_interest", "establishment"], "user_ratings_total": 185, "vicinity": "165 60th St, West New York"}, {"business_status": "OPERATIONAL", "geometry": {"location": {"lat": 40.730693, "lng": -73.948087}, "viewport": {"northeast": {"lat": 40.73209237989271, "lng": -73.94676442010727}, "southwest": {"lat": 40.72939272010727, "lng": -73.94946407989272}}}, "icon": "https://maps.gstatic.com/mapfiles/place_api/icons/gas_station-71.png", "id": "3a1a97eb52fa70e95ef688d97637ddfaaa2a3103", "name": "Gas Station", "opening_hours": {}, "place_id": "ChIJTweWNe1ZwokR1NxQ_wFvQv4", "plus_code": {"compound_code": "P3J2+7Q Brooklyn, New York", "global_code": "87G8P3J2+7Q"}, "rating": 4.6, "reference": "ChIJTweWNe1ZwokR1NxQ_wFvQv4", "scope": "GOOGLE", "types": ["gas_station", "point_of_interest", "establishment"], "user_ratings_total": 17, "vicinity": "Brooklyn"}, {"business_status": "OPERATIONAL", "geometry": {"location": {"lat": 40.7286351, "lng": -73.9502249}, "viewport": {"northeast": {"lat": 40.72993802989272, "lng": -73.94890897010727}, "southwest": {"lat": 40.72723837010728, "lng": -73.95160862989272}}}, "icon": "https://maps.gstatic.com/mapfiles/place_api/icons/gas_station-71.png", "id": "660a428b2761bd1a22fa662a727750d73f08aa1d", "name": "Gulf Gas Station", "opening_hours": {}, "photos": [{"height": 4032, "html_attributions": ["<a href=\"https://maps.google.com/maps/contrib/115728342827887775821\">A Google User</a>"], "photo_reference": "CmRaAAAAGM1FCV63l3DBVrHMELy_3xXf4ivcsAKgP6P2eObf1EmVjrkeTPMV1r7ETtRqkM64nRN1yUPQjXB0To2K6G9DqgDbNq1DPelrAuef8dmClwXy1_JYDCQocVv-jE7SMgwaEhDfxlAkBpJetszVnXCOp7toGhSPR6ByxjOZvyrJQm1u2OPYJAX4jg", "width": 3024}], "place_id": "ChIJlwGNpkdZwokRXqTPhVcgELA", "plus_code": {"compound_code": "P2HX+FW Brooklyn, New York", "global_code": "87G8P2HX+FW"}, "rating": 3.9, "reference": "ChIJlwGNpkdZwokRXqTPhVcgELA", "scope": "GOOGLE", "types": ["gas_station", "point_of_interest", "establishment"], "user_ratings_total": 34, "vicinity": "176 McGuinness Blvd, Brooklyn"}], "status": "OK"}